"created_on","provincia","partido","rooms","surface_total","surface_covered","price","currency","title","property_type","operation_type","lat","lon"
"202106","GBA","Pilar",1,49,33,21000,"ARS","Departamento - Pilar","Departamento","Alquiler",-34.4345016479,-58.8307991028
"202106","CABA","Comuna 5",1,27,25,26900,"ARS","DEPARTAMENTO EN ALQUILER EN ALMAGRO 1 AMB BALCON","Departamento","Alquiler",-34.6025578,-58.4243899
"202106","CABA","Comuna 14",1,34,30,37000,"ARS","Alquiler Monoambiente AMOBLADO - Palermo","Departamento","Alquiler",-34.5922059,-58.4157274
"202106","CABA","Comuna 13",1,48,42,35000,"ARS","Apto profesional: Solo se alquila como oficina o estudio profesional","Departamento","Alquiler",-34.5828068,-58.4482828
"202106","GBA","Hurlingham",1,30,30,16000,"ARS","Monoambiente 1 Piso por escalera","Departamento","Alquiler",-34.6303375,-58.643524
"202106","CABA","Comuna 1",1,46,37,35000,"ARS","Juncal Esmeralda: edificio premium 2 ambientes  balcon terraza cocina integrada, equipado amueblado amenities  categoría ","Departamento","Alquiler",-34.5928008,-58.3790167
"202106","CABA","Comuna 4",1,33,33,25000,"ARS","ALQUILER MONOAMBIENTE PARQUE PATRICIOS","Departamento","Alquiler",-34.6347007,-58.3999765
"202106","CABA","Comuna 14",2,45,40,45000,"ARS","Departamento - Palermo Soho","PH","Alquiler",-34.5909989,-58.4320487
"202106","CABA","Comuna 14",2,55,45,58000,"ARS","Departamento - Palermo Soho","PH","Alquiler",-34.5909989,-58.4320487
"202106","CABA","Comuna 4",2,30,30,25000,"ARS","PH-  2 ambientes x Escalera  en Alquiler  - NO PAGA EXPENSAS - A metros del Parque F. Ameghino -  Parque Patricios","PH","Alquiler",-34.63499,-58.3936372
"202106","GBA","Tigre",2,74,50,65000,"ARS","Departamento  dos ambientes en Nordelta edificio Zaduh","Departamento","Alquiler",-34.3908751,-58.6420805
"202106","CABA","Comuna 7",2,56,53,38000,"ARS","DEPARTAMENTO 2AMB EN ALQUILER EN FLORES CON BALCÓN","Departamento","Alquiler",-34.6361406,-58.4690844
"202106","CABA","Comuna 7",2,38,36,23000,"ARS","Departamento - Flores","Departamento","Alquiler",-34.6208015,-58.4604068
"202106","CABA","Comuna 1",2,39,37,21000,"ARS","2 ambientes - Aceptamos Seguro de Caución -","Departamento","Alquiler",-34.5954332574,-58.3811024836
"202106","CABA","Comuna 14",2,40,35,25000,"ARS","2 AMBIENTES | MARIO BRAVO al 1000","Departamento","Alquiler",-34.5971822342,-58.4158242503
"202106","CABA","Comuna 14",2,70,60,90000,"ARS","Departamento - Palermo Chico","Departamento","Alquiler",-34.5755947,-58.4208487
"202106","CABA","Comuna 14",2,41,37,40000,"ARS","Dpto 2 ambientes Alquiler Palermo con balcon","Departamento","Alquiler",-34.5927666,-58.4144601
"202106","GBA","Quilmes",2,54,48,24000,"ARS","Departamento 2 ambientes en venta o alquiler - Terrazas de Quilmes","Departamento","Alquiler",-34.7270859,-58.2479641
"202106","CABA","Comuna 13",2,40,40,29000,"ARS","Luminoso a mts Plaza Castelli! Balcón aterrazado incorporado","Departamento","Alquiler",-34.5667216,-58.4641361
"202106","CABA","Comuna 13",2,39,39,23000,"ARS","ALQUILER DPTO  2 AMBIENTES EN BELGRANO","Departamento","Alquiler",-34.5473,-58.4599
"202106","CABA","Comuna 13",2,50,46,45000,"ARS","Departamento - Belgrano","Departamento","Alquiler",-34.562755882,-58.4625014292
"202106","CABA","Comuna 13",2,61,58,45000,"ARS","Alquiler: Increible 2 ambientes 61mts. - Piscina - Solarium - Parrilla - Laundry","Departamento","Alquiler",-34.5617208,-58.463909
"202106","GBA","La Plata",2,48,45,18000,"ARS","Departamento - La Plata","Departamento","Alquiler",-34.9242774567,-57.9669767451
"202106","CABA","Comuna 2",2,43,38,33000,"ARS","Alquiler de Departamento dos ambientes Recoleta","Departamento","Alquiler",-34.5911012,-58.3966132
"202106","CABA","Comuna 2",2,35,32,29900,"ARS","Alquiler - Departamento - Recoleta - 2 ambientes - Apto profesional","Departamento","Alquiler",-34.5919658,-58.4113884
"202106","CABA","Comuna 12",2,34,34,25000,"ARS","DEPARTAMENTO DE 2 AMBIENTES","Departamento","Alquiler",-34.554242,-58.4915489
"202106","CABA","Comuna 6",2,42,37,40000,"ARS","Impecable 2 amb. Amoblado. Caballito","Departamento","Alquiler",-34.6108530052,-58.4522330761
"202106","CABA","Comuna 6",2,43,40,49000,"ARS","Depto. Alquiler 2 Amb.Caballito.Full Amenities Seg","Departamento","Alquiler",-34.6159665,-58.4331529
"202106","CABA","Comuna 6",2,53,48,35000,"ARS","Luminoso departamento 2 ambientes al fte con balcon - Caballito","Departamento","Alquiler",-34.6302308,-58.4485963
"202106","CABA","Comuna 1",2,39,37,32000,"ARS","Departamento - Congreso","Departamento","Alquiler",-34.616861309,-58.3889035805
"202106","CABA","Comuna 1",2,30,30,28000,"ARS","DEPARTAMENTO 2 AMB - SAN TELMO","Departamento","Alquiler",-34.618197,-58.367282
"202106","GBA","Avellaneda",2,48,46,19000,"ARS","Alquiler de Departamento 2 ambientes con cochera en Villa Dominico (26712)","Departamento","Alquiler",-34.6949351,-58.3340877
"202106","GBA","San Isidro",2,49,45,40000,"ARS","Departamento - San Isidro","Departamento","Alquiler",-34.4707267102,-58.5228070111
"202106","GBA","San Miguel",2,40,40,30000,"ARS","Alquiler - Departamento de 2 Ambientes - Bella Vista","Departamento","Alquiler",-34.5486226,-58.6918521
"202106","GBA","San Miguel",2,40,40,23000,"ARS","Departamento - Centro (S.Mig.)","Departamento","Alquiler",-34.5422119433,-58.714762354
"202106","CABA","Comuna 15",2,37,36,30000,"ARS","ALQUILER DEPARTAMENTO 2 AMBIENTES VILLA URQUIZA","Departamento","Alquiler",-34.5824075,-58.4762057
"202106","CABA","Comuna 2",2,36,35,26000,"ARS","Barrio Norte: Alquiler de departamentos: 2 ambientes. Muy luminoso. Vista abierta. Excelente ubicación a 2 cuadras de Av. Santa Fe y subte D estación Aguero. Vigilancia 24 hs.","Departamento","Alquiler",-34.5948527,-58.4082469
"202106","CABA","Comuna 2",2,70,50,45000,"ARS","Departamento en alquiler en Barrio Norte. 2 ambientes contrafrente. Balcón. Cochera Fija. Pileta, so","Departamento","Alquiler",-34.5928623,-58.4094393
"202106","GBA","San Fernando",2,60,55,20000,"ARS","Departamento - San Fernando","Departamento","Alquiler",-34.446284713,-58.5493262891
"202106","CABA","Comuna 12",2,42,39,29500,"ARS","Depto 2 amb, Moderno, muy luminoso, full amenities","Departamento","Alquiler",-34.575049,-58.5005459
"202106","CABA","Comuna 12",2,40,36,41000,"ARS","Departamento 2 ambientes en semipiso","Departamento","Alquiler",-34.5688374,-58.4874668
"202106","CABA","Comuna 15",2,80,40,32000,"ARS","DEPARTAMENTO DE DOS AMBIENTES CON TERRAZA PROPIA EN EDIFICIO CON AMENITIES","Departamento","Alquiler",-34.5879952,-58.4790096
"202106","GBA","Vicente López",2,46,40,45000,"ARS","AMUEBLADO - 2 Ambientes con amplio balcon a metros de Av. Maipu","Departamento","Alquiler",-34.5102657,-58.4899688
"202106","GBA","Almirante Brown",2,50,50,24000,"ARS","DEPTO 2 AMBIENTES A 1 CUADRA DE PLAZA CERRETI","Departamento","Alquiler",-34.8021343585,-58.384285254
"202106","GBA","Lomas de Zamora",2,40,40,20000,"ARS","Departamento - Lomas de Zamora Oeste","Departamento","Alquiler",-34.759165,-58.3980193
"202106","CABA","Comuna 7",2,42,37,34000,"ARS","Alquiler departamento en Parque Chacabuco","Departamento","Alquiler",-34.6340618,-58.4328816
"202106","CABA","Comuna 10",3,57,55,50000,"ARS","PH - Versalles","PH","Alquiler",-34.6210772,-58.5144536
"202106","CABA","Comuna 10",3,80,60,60000,"ARS","PH - Devoto","PH","Alquiler",-34.6213621,-58.5143017
"202106","GBA","La Plata",3,77,77,22000,"ARS","182 e/ 518 y 519 Casa en ALQUILER - La Plata","Casa","Alquiler",-34.9599514608,-58.0613442287
"202106","GBA","Tigre",3,90,75,130000,"ARS","Alquiler 3 ambientes con jardín en Praderas de Santa Bárbara","Departamento","Alquiler",-34.4327387,-58.6213153
"202106","CABA","Comuna 13",3,82,65,100000,"ARS","Excelente y Moderno. 2 Dormitorios - Cochera -  AMENITIES!!! SEG 24 HS.","Departamento","Alquiler",-34.5504428,-58.4678886
"202106","CABA","Comuna 9",3,55,55,35000,"ARS","GORDILLO 15 - LINIERS","Departamento","Alquiler",-34.6519399,-58.5154036
"202106","CABA","Comuna 14",3,60,52,55000,"ARS","ALQUILER DEPARTAMENTO 3 AMBIENTES PB PALERMO","Departamento","Alquiler",-34.5951182,-58.4242681
"202106","GBA","La Plata",3,54,51,20000,"ARS","Departamento - Tolosa - La Plata - Hernández -","Departamento","Alquiler",-34.9131385877,-58.0032998851
"202106","GBA","La Plata",3,50,46,26000,"ARS","Departamento en ALQUILER de 2 dormitorios","Departamento","Alquiler",-34.9070809,-57.9735369
"202106","CABA","Comuna 2",3,65,65,40000,"ARS","Departamento 3 ambientes en ALQUILER EN RECOLETA","Departamento","Alquiler",-34.5931911,-58.4005779
"202106","CABA","Comuna 13",3,56,52,35000,"ARS","T. GARCÍA 2885 - COLEGIALES - 3 AMB. AL FRENTE CON BALCÓN!","Departamento","Alquiler",-34.573842,-58.4489284
"202106","GBA","La Matanza",3,55,50,32000,"ARS","Departamento - Ramos Mejia Sur","Departamento","Alquiler",-34.6427898,-58.5635753
"202106","GBA","San Isidro",3,61,58,45000,"ARS","Departamento - Martinez","Departamento","Alquiler",-34.4897940714,-58.5002755152
"202106","GBA","Almirante Brown",3,60,60,25000,"ARS","DEPARTAMENTO CENTRICO 3 AMB. A MTS DE LA ESTACION","Departamento","Alquiler",-34.798431425,-58.3921471063
"202106","GBA","Lomas de Zamora",3,93,93,42000,"ARS","SANTILLI - ACEVEDO 44 5ºB - Lomas de Zamora Oeste","Departamento","Alquiler",-34.7598954282,-58.4010651659
"202106","CABA","Comuna 7",4,104,62,65000,"ARS","Culpina al 1300 - PH de 4 ambientes - En alquiler - Flores","PH","Alquiler",-34.6422201,-58.4570934
"202106","GBA","Quilmes",4,98,84,34000,"ARS","ALQUILER DUPLEX 4 AMBIENTES  BERNAL CENTRO","PH","Alquiler",-34.7121803,-58.2851882
"202106","CABA","Comuna 13",4,240,110,130000,"ARS","ALQUILER TEMPORARIO PH 4 AMBIENTES EN BELGRANO","PH","Alquiler",-34.5739837,-58.4672027
"202106","CABA","Comuna 9",4,65,65,48000,"ARS","Departamento - Villa Luro","Departamento","Alquiler",-34.6381429,-58.5095313
"202106","CABA","Comuna 1",4,165,150,285000,"ARS","Departamento 4 Ambientes con Cochera Puerto Madero","Departamento","Alquiler",-34.6126394,-58.3631336
"202106","GBA","Malvinas Argentinas",9,350,350,80000,"ARS","Casa - Malvinas Argentinas","Casa","Alquiler",-34.5048094,-58.7061713
"202106","CABA","Comuna 1",1,26,20,62000,"USD","Venta PH monoamb c/ entrepiso y terraza, Monserrat","PH","Venta",-34.615514,-58.3851664
"202106","GBA","Malvinas Argentinas",1,60,40,90000,"USD","Casa - Ingeniero Adolfo Sourdeaux","Casa","Venta",-34.4986983,-58.6527594
"202106","GBA","Pilar",1,48,36,75000,"USD","Venta mono. divisible con balcon terraza equipado.","Departamento","Venta",-34.456553,-58.90955
"202106","CABA","Comuna 12",1,40,36,99500,"USD","Ambiente y medio divisible a estrenar en Coghlan","Departamento","Venta",-34.5679882,-58.4768372
"202106","CABA","Comuna 14",1,28,28,68000,"USD","DEPARTAMENTO MONOAMBIENTE EN VENTA - PALERMO","Departamento","Venta",-34.5835459,-58.4226996
"202106","CABA","Comuna 14",1,91,53,135000,"USD","Monoambiente divisible apto profesional, amenities","Departamento","Venta",-34.5923671,-58.4288612
"202106","CABA","Comuna 13",1,33,29,95000,"USD","MONOAMBIENTE  EN VENTA - AMENITIES - PISCINA - PARRILLA -LOUNDRY - LUMINOSO - COGHLAN","Departamento","Venta",-34.5609353,-58.4664471
"202106","CABA","Comuna 14",1,33,33,140000,"USD","VENTA DEPARTAMENTO MONOAMBIENTE BELGRANO","Departamento","Venta",-34.569482,-58.446064
"202106","GBA","La Plata",1,37,37,30000,"USD","Monoambiente en venta 37mts2  - La Plata","Departamento","Venta",-34.8977248027,-57.9566126894
"202106","GBA","La Plata",1,37,37,38000,"USD","Monoambiente en venta 37mts2 totales- La Plata","Departamento","Venta",-34.9209573831,-57.9791334992
"202106","CABA","Comuna 10",1,23,23,52000,"USD","Monoambiente reciclado a nuevo Villa Luro Velez Sarsfield","Departamento","Venta",-34.6307907,-58.4964453
"202106","CABA","Comuna 2",1,38,35,90000,"USD","DEPARTAMENTO EN VENTA CON COCHERA EN BARRIO NORTE","Departamento","Venta",-34.5952518,-58.4073427
"202106","CABA","Comuna 15",1,50,32,80000,"USD","VENTA - Departamento 1 ambiente en Villa Crespo","Departamento","Venta",-34.5949394,-58.4417772
"202106","CABA","Comuna 15",1,27,25,75000,"USD","Departamento - Villa Crespo","Departamento","Venta",-34.5997401,-58.4352832
"202106","CABA","Comuna 14",1,30,30,55000,"USD","Mono en excelentes condiciones en Villa Crespo!","Departamento","Venta",-34.596195,-58.427002
"202106","GBA","Lomas de Zamora",1,34,30,65000,"USD","VENTA MONOAMBIENTE - BALCON - PARRILLA - BANFIELD","Departamento","Venta",-34.7446275878,-58.3887183666
"202106","GBA","Lanús",2,55,45,48000,"USD","PH. de 2 ambientes ideal inversión","PH","Venta",-34.691475,-58.3981102
"202106","GBA","Morón",2,50,50,59000,"USD","PH - Castelar","PH","Venta",-34.6779764,-58.6591638
"202106","CABA","Comuna 12",2,47,47,110000,"USD","Venta PH 2 ambientes Coghlan","PH","Venta",-34.5553806,-58.4751101
"202106","CABA","Comuna 14",2,62,49,119000,"USD","VENTA 2 AMB CON GRAN PATIO TECHADO PALERMO SOHO","PH","Venta",-34.5938152,-58.429581
"202106","GBA","La Plata",2,38,32,35000,"USD","PH interno con patio","PH","Venta",-34.9145460994,-57.9278182983
"202106","CABA","Comuna 9",2,111,44,84000,"USD","PH DE 2 AMBIENTES MATADEROS","PH","Venta",-34.6551649,-58.4944206
"202106","CABA","Comuna 12",2,45,45,95000,"USD","PH VENTA EN VILLA URQUIZA","PH","Venta",-34.56696,-58.493222
"202106","GBA","Merlo",2,60,60,75000,"USD","CASA VENTA 3 AMBIENTES CON PILETA MERLO LIBERTAD","Casa","Venta",-34.711561391,-58.703212738
"202106","GBA","Escobar",2,64,40,48000,"USD","CASA DE 2 AMBIENTES EN VENTA EN ESCOBAR","Casa","Venta",-34.3459596,-58.8199046
"202106","GBA","Escobar",2,81,70,49000,"USD","Casa en Venta en Escobar","Casa","Venta",-34.360062,-58.82579
"202106","CABA","Comuna 5",2,32,32,59000,"USD","DPTO 2 AMBIENTES LUMINOSO C/ BALCÓN FRANCÉS- BOEDO","Departamento","Venta",-34.6314235,-58.4159701
"202106","GBA","Pilar",2,44,43,49800,"USD","VENTA  2 AMB.  C/ FINANCIACIÓN  PILAR CENTRO OPORT","Departamento","Venta",-34.456437,-58.91623
"202106","GBA","Tigre",2,56,46,110000,"USD","Venta Departamento 2 ambientes vista al lago Posadas Nordelta","Departamento","Venta",-34.4254276751,-58.657228263
"202106","GBA","Tigre",2,56,46,110000,"USD","Venta Departamento 2 ambientes con vista a la laguna Nordelta","Departamento","Venta",-34.4254276751,-58.657228263
"202106","GBA","Tigre",2,62,53,130000,"USD","DEPTO DE 2 AMBIENTES EN TIGRE CENTRO OPORTUNIDAD","Departamento","Venta",-34.4709895,-58.6431962
"202106","GBA","Tigre",2,63,52,135000,"USD","DEPARTAMENTO EN VENTA 2 AMBIENTES, CON COCHERA","Departamento","Venta",-34.3908751,-58.6420805
"202106","GBA","Tigre",2,60,60,215000,"USD","Departamento - Espigon Trece","Departamento","Venta",-34.3902005,-58.6437709
"202106","CABA","Comuna 7",2,44,41,89000,"USD","Venta Dos ambientes Flores norte balcón!","Departamento","Venta",-34.6341738,-58.4621219
"202106","CABA","Comuna 7",2,51,48,79500,"USD","Departamento 2 ambientes con balcón - Flores","Departamento","Venta",-34.6349538,-58.4664564
"202106","CABA","Comuna 7",2,47,41,98000,"USD","Oportunidad - Muy Buen Depto 2 Amb. c/ Balcón - Cochera Fija y Baulera - 47 m²","Departamento","Venta",-34.635818,-58.4611551
"202106","CABA","Comuna 7",2,46,43,99000,"USD","Departamento - Flores","Departamento","Venta",-34.633203,-58.4654005
"202106","CABA","Comuna 7",2,38,32,85000,"USD","DPTO. 2 AMB. C/ BALCÓN CORRIDO TERRAZA Y PILETA","Departamento","Venta",-34.6233831,-58.4658216
"202106","GBA","Lanús",2,62,62,80000,"USD","VENTA DEPARTAMENTO 2 AMB. Y MEDIO C/COCH TECHADA","Departamento","Venta",-34.6877618,-58.4191688
"202106","GBA","Lanús",2,39,35,55000,"USD","Excelente! Depto de 2 amb c/Balcon-a 1 cuadra Avda","Departamento","Venta",-34.6918943,-58.3917693
"202106","GBA","Morón",2,40,35,60000,"USD","Departamento  2 Ambientes- Moron -Venta-Permuta-Apto crédito","Departamento","Venta",-34.6596879,-58.6200837
"202106","GBA","Morón",2,40,37,66000,"USD","VENTA DEPARTAMENTO E 2 AMBIENTES CASTELAR","Departamento","Venta",-34.654295,-58.6414141
"202106","GBA","Morón",2,40,37,66000,"USD","VENTA DEPARTAMENTO CASTELAR SUR FRENTE","Departamento","Venta",-34.6539196699,-58.6423105001
"202106","CABA","Comuna 13",2,42,38,137000,"USD","DEPARTAMENTO 2 AMBIENTES  BALCON AMENITIES NUÑEZ","Departamento","Venta",-34.5435686,-58.4619563
"202106","CABA","Comuna 13",2,61,49,245000,"USD","2AMB a Estrenar - Suite - Toilette - Parrilla en Balcón y Cochera - Manzanares 1700","Departamento","Venta",-34.5441114,-58.4630978
"202106","CABA","Comuna 13",2,42,36,135000,"USD","VENTA DPTO. 2 AMBIENTES C/BALCÓN Y AMENITIES NUÑEZ","Departamento","Venta",-34.5535035,-58.4664032
"202106","CABA","Comuna 1",2,58,52,99000,"USD","Venta 2 amb 58m2 Zona Retiro excelente ubicación!","Departamento","Venta",-34.602954436,-58.3786496864
"202106","CABA","Comuna 12",2,48,43,105000,"USD","Venta hermoso 2 amb. Coghlan con balcón.","Departamento","Venta",-34.555291,-58.476482
"202106","GBA","Escobar",2,53,45,74900,"USD","VENTA DEPARTAMENTO 2 AMB EN ESCOBAR","Departamento","Venta",-34.345511,-58.792656
"202106","CABA","Comuna 9",2,54,39,85000,"USD","DEPARTAMENTO VENTA 2 AMBIENTES CON AMPLIO PATIO","Departamento","Venta",-34.6430212,-58.5110471
"202106","CABA","Comuna 9",2,50,47,118900,"USD","Venta Departamento 2 ambientes con balcón !!! Naón","Departamento","Venta",-34.655278,-58.523593
"202106","CABA","Comuna 2",2,71,57,155000,"USD","VENTA DEPARTAMENTO 2 AMBIENTES DUPLEX COCH PALERMO","Departamento","Venta",-34.5966,-58.41186
"202106","CABA","Comuna 14",2,87,43,135000,"USD","Dos ambientes en Palermo con terraza propia","Departamento","Venta",-34.5739051,-58.4338779
"202106","CABA","Comuna 14",2,45,45,119000,"USD","Departamento 2 Ambientes Venta Palermo Oportunidad","Departamento","Venta",-34.5777417,-58.4058409
"202106","CABA","Comuna 14",2,51,46,150000,"USD","Venta departamento 2 ambientes   Garage - Palermo Soho","Departamento","Venta",-34.5932336,-58.4300446
"202106","CABA","Comuna 14",2,49,42,119000,"USD","OPORTUNIDAD!!!Departamento Silencioso y luminoso.","Departamento","Venta",-34.571338,-58.434541
"202106","CABA","Comuna 14",2,49,42,129000,"USD","VTA Depto 2 amb Palermo Soho/RECICLADO apto prof.","Departamento","Venta",-34.588298,-58.421173
"202106","GBA","Quilmes",2,54,48,90000,"USD","Departamento 2 ambientes en venta o alquiler - Terrazas de Quilmes","Departamento","Venta",-34.7270859,-58.2479641
"202106","CABA","Comuna 4",2,49,39,125000,"USD","DEPARTAMENTO A ESTRENAR EN VENTA 2 AMB BARRACAS","Departamento","Venta",-34.633402,-58.371434
"202106","CABA","Comuna 14",2,48,45,110000,"USD","Departamento 2 ambientes en edificio Premium - Belgrano","Departamento","Venta",-34.5684897638,-58.4441336618
"202106","CABA","Comuna 13",2,55,36,132000,"USD","VENTA DEPARTAMENTO 2 AMBIENTES BELGRANO A ESTRENAR PATIO","Departamento","Venta",-34.5632269,-58.4611794
"202106","CABA","Comuna 13",2,44,36,126000,"USD","VENTA DEPARTAMENTO 2 AMBIENTES BELGRANO A ESTRENAR","Departamento","Venta",-34.5632269,-58.4611794
"202106","CABA","Comuna 13",2,60,51,179900,"USD","VENTA DEPARTAMENTO 2 AMBIENTES  BELGRANO","Departamento","Venta",-34.554356,-58.458076
"202106","CABA","Comuna 13",2,55,36,154000,"USD","VENTA DEPARTAMENTO 2 AMBIENTES BELGRANO A ESTRENAR PATIO ESPACIO GUARDACOCHE","Departamento","Venta",-34.5632269,-58.4611794
"202106","CABA","Comuna 13",2,44,36,149000,"USD","VENTA DEPARTAMENTO 2 AMBIENTES BELGRANO A ESTRENAR  ESPACIO GUARDACOCHE","Departamento","Venta",-34.5632269,-58.4611794
"202106","CABA","Comuna 13",2,38,33,145000,"USD","VENTA DPTO. 2 AMBIENTES COCHERA AMENITIES BELGRANO","Departamento","Venta",-34.5662991,-58.4574022
"202106","CABA","Comuna 1",2,41,41,73000,"USD","Venta departamento 2 ambientes en Congreso","Departamento","Venta",-34.611774,-58.390169
"202106","GBA","La Plata",2,58,51,68000,"USD","Departamento  1 dormitorio parque San Martín","Departamento","Venta",-34.9365986,-57.9691433
"202106","GBA","La Plata",2,41,38,62000,"USD","Departamento en venta 1 dormitorio","Departamento","Venta",-34.911073,-57.9591325
"202106","GBA","La Plata",2,56,45,64000,"USD","Depto 1 dormitorio con balcón terraza, La Plata","Departamento","Venta",-34.9229466058,-57.9385218739
"202106","GBA","La Plata",2,99,36,42000,"USD","Departamento de un dorm con parque  y patio","Departamento","Venta",-34.9217454,-57.9245363
"202106","GBA","La Plata",2,46,46,70000,"USD","Departamento 1 Dormitorio c/Coch en Venta La Plata","Departamento","Venta",-34.902809,-57.968137
"202106","CABA","Comuna 2",2,55,55,120000,"USD","Departamento - Recoleta","Departamento","Venta",-34.5972377,-58.4078482
"202106","CABA","Comuna 2",2,32,32,130000,"USD","Departamento - Recoleta","Departamento","Venta",-34.5934863,-58.4051071
"202106","CABA","Comuna 2",2,37,31,89900,"USD","Venta Depto. al frente con balcón, Excel zona","Departamento","Venta",-34.5953281662,-58.407804966
"202106","CABA","Comuna 12",2,53,47,100000,"USD","VENTA 2 Amb PH Apto Profesional A estrenar","Departamento","Venta",-34.552571,-58.497761
"202106","CABA","Comuna 6",2,51,46,138500,"USD","VENTA 2 Ambientes con Cochera. Piscina, Deck, SUM,","Departamento","Venta",-34.6223575,-58.4351934
"202106","CABA","Comuna 6",2,60,54,98600,"USD","DEPARTAMENTO 2 AMBIENTES A ESTRENAR AMENITIES","Departamento","Venta",-34.618044,-58.443262
"202106","CABA","Comuna 6",2,45,41,144900,"USD","Departamento VENTA DOS AMBIENTES CON COCHERA  - Caballito","Departamento","Venta",-34.6280542,-58.4282596
"202106","CABA","Comuna 6",2,42,38,98000,"USD","Departamento - Caballito","Departamento","Venta",-34.610642,-58.4425061
"202106","CABA","Comuna 6",2,39,39,74900,"USD","VENTA DEPARTAMENTO 2 AMB CABALLITO CID RECICLADO","Departamento","Venta",-34.6123322,-58.4416673
"202106","CABA","Comuna 6",2,31,31,69000,"USD","VENTA DEPARTAMENTO 2 AMBIENTES EN CABALLITO","Departamento","Venta",-34.6165492,-58.4486308
"202106","CABA","Comuna 15",2,43,42,92000,"USD","Departamento 2 ambientes - Chacarita","Departamento","Venta",-34.5893252,-58.4473975
"202106","CABA","Comuna 9",2,46,38,59000,"USD","Departamento - Mataderos","Departamento","Venta",-34.663176,-58.4996598
"202106","GBA","Avellaneda",2,31,31,29400,"USD","VENTA DTO 2 AMB EMPRENDIMIENTO AL COSTO AVELLANEDA","Departamento","Venta",-34.680315,-58.345713
"202106","GBA","Avellaneda",2,33,33,75000,"USD","DEPARTAMENTO 2 AMB EN VENTA. AVELLANEDA CENTRO","Departamento","Venta",-34.660775,-58.3666167
"202106","GBA","La Matanza",2,48,45,78000,"USD","Venta Departamento 2 Amb. en Dúplex Ramos Mejía","Departamento","Venta",-34.6457275,-58.5766844
"202106","GBA","La Matanza",2,48,45,135000,"USD","Dpto 2 Amb con Balcón y Cochera Ramos Centro","Departamento","Venta",-34.6449815,-58.5627878
"202106","GBA","San Isidro",2,76,65,250000,"USD","Excelente 2 Ambientes de Categoría con Cochera .","Departamento","Venta",-34.488963,-58.4852872
"202106","CABA","Comuna 2",2,45,40,125000,"USD","SE VENDE DEPARTAMENTO 02 AMBIENTES , BARRIO NORTE -.RECOLETA","Departamento","Venta",-34.5952931,-58.4043544
"202106","GBA","San Fernando",2,61,52,99606,"USD","Lencke Vende - A estrenar, amplio depto 2 ambientes, financiacion directa s/interes","Departamento","Venta",-34.4550465946,-58.5610599445
"202106","CABA","Comuna 1",2,37,37,87000,"USD","Departamento - San Nicolas","Departamento","Venta",-34.6079104871,-58.3821422506
"202106","CABA","Comuna 15",2,49,43,128900,"USD","2 amb. cochera y amenitites. 48mtrs, Villa Crespo.","Departamento","Venta",-34.5935487,-58.4404362
"202106","CABA","Comuna 11",2,49,49,113900,"USD","DEPARTAMENTO DOS AMBIENTES AMPLIO  EN VENTA DEVOTO","Departamento","Venta",-34.611826,-58.516024
"202106","CABA","Comuna 11",2,55,55,97000,"USD","Departamento 2 amb. Venta Devoto Bajas expensas","Departamento","Venta",-34.5922256,-58.507703
"202106","CABA","Comuna 1",2,46,46,95500,"USD","VENTA DE DEPARTAMENTOS EN LA """"NUEVA CONSTITUCIÓN""""","Departamento","Venta",-34.6261172,-58.3881231
"202106","CABA","Comuna 1",2,61,57,380000,"USD","Departamento - Puerto Madero","Departamento","Venta",-34.6036948,-58.3631579
"202106","CABA","Comuna 3",2,44,41,72000,"USD","VENTA-S.CRISTOBAL-2AMB LUM.-LAVAD.-BALCÓN-","Departamento","Venta",-34.621034,-58.400263
"202106","CABA","Comuna 3",2,48,48,80000,"USD","Departamento 2 Amb - Dean Funes 1000 - San Cristóbal","Departamento","Venta",-34.6224105,-58.4060074
"202106","CABA","Comuna 12",2,59,50,170000,"USD","Departamento en venta. Dos ambientes c/cochera. Amenities, Villa Urquiza","Departamento","Venta",-34.5697457,-58.4766537
"202106","CABA","Comuna 12",2,52,49,119000,"USD","VENTA DPTO 2 AMB C/BALCÓN Y PARRILLA VILLA URQUIZA","Departamento","Venta",-34.5669,-58.4893
"202106","CABA","Comuna 12",2,37,36,84900,"USD","Venta Departamento 2 ambientes Villa Urquiza","Departamento","Venta",-34.5695667,-58.4787232
"202106","CABA","Comuna 12",2,52,49,139000,"USD","VENTA DPTO 2AMB BALCÓN COCHERA PARRILLA V. URQUIZA","Departamento","Venta",-34.5669,-58.4893
"202106","GBA","Vicente López",2,72,66,287000,"USD","Departamento - Olivos-Vias/Rio","Departamento","Venta",-34.5077862,-58.4793619
"202106","GBA","Vicente López",2,55,44,159000,"USD","Departamento - La Lucila","Departamento","Venta",-34.5052088,-58.4933942
"202106","GBA","Vicente López",2,58,50,145000,"USD","Departamento 2 amb y medio con Balcón y Cochera en Olivos","Departamento","Venta",-34.5147091,-58.4962713
"202106","GBA","Lomas de Zamora",2,65,35,87000,"USD","DPTO TIPO DUPLEX CON TERRAZA PROPIA A ESTRENAR","Departamento","Venta",-34.761603,-58.407464
"202106","GBA","Tres de Febrero",2,42,39,55000,"USD","Departamento 2 amb en venta, Caseros Centro.","Departamento","Venta",-34.6089476,-58.5613238
"202106","GBA","Tres de Febrero",2,89,46,85000,"USD","Fischetti 4769 Caseros Depto en venta 2 ambientes y terraza propia piso superior","Departamento","Venta",-34.6000693,-58.5629162
"202106","GBA","Tres de Febrero",2,70,70,73000,"USD","2 Amb amplios c/Cochera. Ciudadela Centro","Departamento","Venta",-34.6416581,-58.54243
"202106","CABA","Comuna 15",2,55,47,99000,"USD","Departamento - Villa del Parque","Departamento","Venta",-34.5995297,-58.4846145
"202106","CABA","Comuna 11",2,45,37,69900,"USD","HERMOSO DEPTO REFACCIONADO VILLA DEL PARQUE","Departamento","Venta",-34.6039318,-58.5012333
"202106","CABA","Comuna 11",2,61,55,95000,"USD","VENTA- DPTO 2 AMBIENTES  C/BALCON","Departamento","Venta",-34.6000485,-58.4861631
"202106","CABA","Comuna 11",2,32,32,60000,"USD","DEPARTAMENTO 2 AMBIENTES - PATERNAL","Departamento","Venta",-34.6133258,-58.4728024
"202106","GBA","Merlo",3,170,80,125000,"USD","PH A LA VENTA EN PADUA CON AMPLIO PARQUE IMPECABLE","PH","Venta",-34.683149,-58.7145535
"202106","GBA","Morón",3,206,108,72000,"USD","VENTA PH TIPO CASA 3 AMB. JARDIN GARAGE MORON SUR","PH","Venta",-34.6649602,-58.6211907
"202106","CABA","Comuna 13",3,109,63,69000,"USD","PH VENTA 3 AMBIENTES EXCELENTE PATIO","PH","Venta",-34.5435191,-58.4641113
"202106","CABA","Comuna 12",3,60,48,120000,"USD","VENTA PH 3 AMBIENTES c/ patio COGHLAN","PH","Venta",-34.5582606,-58.4853779
"202106","CABA","Comuna 9",3,534,340,440000,"USD","3 DEPARTAMENTOS DE 3 AMB  MAS LOCAL S/ SUBDIVISIO","PH","Venta",-34.64659,-58.519538
"202106","CABA","Comuna 14",3,101,75,218000,"USD","PH 3 AMBIENTES CON TERRAZA EN PALERMO GRAN UBICACION","PH","Venta",-34.5884569,-58.4210078
"202106","GBA","Quilmes",3,138,120,44500,"USD","VENTA DE PH 3 AMBIENTES","PH","Venta",-34.7173238,-58.294742
"202106","GBA","La Plata",3,95,78,87000,"USD","Casa de 2 Dormitorios en Los Hornos","PH","Venta",-34.9471967254,-57.9690599442
"202106","GBA","La Plata",3,45,35,43000,"USD","venta de ph de un 1 dormitorio en la plata","PH","Venta",-34.916734942,-57.9801907351
"202106","GBA","La Plata",3,93,93,75000,"USD","PH de 2 dormitorios en venta en La Plata","PH","Venta",-34.9207038,-57.9642904
"202106","CABA","Comuna 1",3,70,70,114900,"USD","Vendo PH 3 ambientes - Reciclado - San Telmo","PH","Venta",-34.6223171,-58.3742304
"202106","GBA","Avellaneda",3,78,78,56000,"USD","Venta de departamento tipo casa de 3 ambientes con patio (27800)","PH","Venta",-34.6792357,-58.3502639
"202106","GBA","La Matanza",3,105,65,95000,"USD","Duplex 3 ambientes en venta  - Villa Luzuriaga","PH","Venta",-34.655797,-58.5817999
"202106","CABA","Comuna 10",3,70,66,120000,"USD","PH - Villa Luro","PH","Venta",-34.6406436,-58.5006773
"202106","GBA","San Fernando",3,84,52,140000,"USD","PH 3 AMB. SIN EXPENSAS SAN FERNANDO PATIO PARRILLA","PH","Venta",-34.4432696,-58.5648226
"202106","CABA","Comuna 15",3,47,47,99000,"USD","Depto.tipo casa de 3 ambientes en Venta en Villa crespo","PH","Venta",-34.5977710238,-58.4331039704
"202106","CABA","Comuna 11",3,97,55,218900,"USD","VENTA PH 3 AMBIENTES PARRILLA A ESTRENAR DEVOTO","PH","Venta",-34.608408,-58.5108562
"202106","CABA","Comuna 11",3,155,86,240000,"USD","PH 3 AMB EN VENTA VILLA DEVOTO C/PATIO Y TERRAZA","PH","Venta",-34.6037158,-58.5105221
"202106","CABA","Comuna 12",3,60,60,129000,"USD","Venta PH 3 amb. Terraza c/parrilla. Sin expensas!","PH","Venta",-34.5863193,-58.5122636
"202106","GBA","Vicente López",3,250,70,160000,"USD","VENTA PH VILLA MARTELLI COCHERA TERRAZA A RECICLAR","PH","Venta",-34.5532369,-58.5096921
"202106","GBA","Vicente López",3,60,53,145000,"USD","PH EN VENTA- LAPRIDA AL 1900 -3 AMB. - 60 M2 - FLORIDA-VTE LOPEZ","PH","Venta",-34.5380417917,-58.4835407646
"202106","GBA","Vicente López",3,115,71,79000,"USD","VENTA PH AL FRENTE 3 AMB PATIO A RECICLAR V.LOPEZ","PH","Venta",-34.5326518141,-58.5163593292
"202106","CABA","Comuna 11",3,110,110,150000,"USD","VENTA PH 3 AMB C/ PATIO A REFACCIONAR V .DEL PARQU","PH","Venta",-34.6052138,-58.4956536
"202106","CABA","Comuna 11",3,138,100,250000,"USD","Venta 3 ambientes + cochera + patio y jacuzzi","PH","Venta",-34.6069668,-58.4818445
"202106","GBA","General San Martín",3,113,53,95000,"USD","P.H 3 AMBIENTES EN P.A CON  TERRAZA Y QUINCHO","PH","Venta",-34.5313194,-58.5603891
"202106","GBA","General San Martín",3,136,133,118000,"USD","Hermoso PH de 3 amplios amb. en PA. Garage - Patio - Quincho - Jose Leon Suarez","PH","Venta",-34.519724,-58.5724943
"202106","GBA","Tigre",3,97,80,170000,"USD","Casa tipo dúplex en venta en complejo  Palmas de la Bahía, Tigre.","Casa","Venta",-34.4189088,-58.5907519
"202106","GBA","Ezeiza",3,108,108,139000,"USD","Venta Casa 3 ambientes La Union Ezeiza","Casa","Venta",-34.881891,-58.551593
"202106","GBA","Moreno",3,400,80,65000,"USD","2 Lotes.Chalet Alpino c/pileta, Amplio Quincho.Oportunidada","Casa","Venta",-34.6609802,-58.823444
"202106","GBA","Morón",3,95,95,100000,"USD","Casa - Moron Sur","Casa","Venta",-34.6993392,-58.6373107
"202106","GBA","Morón",3,90,90,169000,"USD","VENTA CASA + DPTO. COCHERA  PATIO CASTELAR NORTE","Casa","Venta",-34.6545038,-58.6518212
"202106","GBA","Morón",3,290,90,169000,"USD","VENTA CASA CASTELAR NORTE","Casa","Venta",-34.6541741398,-58.6540961266
"202106","GBA","Escobar",3,88,88,104000,"USD","Casa en ESCOBAR, sobre lote de 1000mts ","Casa","Venta",-34.4063888,-58.7692331
"202106","GBA","Quilmes",3,264,264,153000,"USD","VENTA CASA 3 AMBIENTES QUILMES","Casa","Venta",-34.721794,-58.264915
"202106","GBA","Quilmes",3,236,176,196000,"USD","VENTA CASA 3 AMB COCHERA PILETA DON BOSCO QUILMES","Casa","Venta",-34.7012596,-58.2901845
"202106","GBA","La Plata",3,66,66,80000,"USD","CASA A ESTRENAR 66M2 EXCELENTE OPOTUNIDAD","Casa","Venta",-34.8581333715,-58.0397844315
"202106","GBA","La Plata",3,70,70,120000,"USD","Casa 2 dormitorios 1 baño 1800mts2 totales- Los Hornos","Casa","Venta",-34.9874270443,-57.9671878838
"202106","GBA","Ensenada",3,70,70,50000,"USD","Casa 2 dormitorios 2 baños en venta 100mts2 totales- La Plata","Casa","Venta",-34.8886949,-57.9522387
"202106","GBA","La Plata",3,82,66,108000,"USD","Dúplex de dos dormitorios en venta en La Plata.","Casa","Venta",-34.9057557,-57.9786725
"202106","GBA","Ituzaingó",3,80,80,70000,"USD","Casa - Ituzaingó","Casa","Venta",-34.6431025,-58.6815354
"202106","GBA","Ituzaingó",3,150,135,70000,"USD","Casa - Ituzaingó Norte","Casa","Venta",-34.6455542,-58.7057642
"202106","GBA","La Matanza",3,100,100,230000,"USD","Casa - Ciudad Evita","Casa","Venta",-34.7366658344,-58.5268080079
"202106","GBA","San Miguel",3,107,78,94900,"USD","TRIPLEX 3 AMBIENTES Y PLAYROOM VENTA EN SAN MIGUEL","Casa","Venta",-34.5340235303,-58.7092852592
"202106","GBA","San Miguel",3,130,100,155000,"USD","VENTA CASA 3 AMBIENTES, PILETA, JARDÍN GARAGE","Casa","Venta",-34.5677818,-58.6781035
"202106","GBA","Tres de Febrero",3,162,120,80000,"USD","Venta Casa 3 amb Caseros Lote Grande","Casa","Venta",-34.6053654,-58.5754864
"202106","GBA","Tres de Febrero",3,109,101,69900,"USD","VENTA CASA 3 AMBIENTES","Casa","Venta",-34.5737829,-58.6036731
"202106","GBA","General San Martín",3,180,180,46000,"USD","Casa  y local en venta en Villa Bonich","Casa","Venta",-34.5681536,-58.5645829
"202106","GBA","Malvinas Argentinas",3,1338,101,130000,"USD","CASA 3 AMB EN VENTA TORTUGUITAS PILETA Y JARDIN","Casa","Venta",-34.4715295,-58.7656481
"202106","CABA","Comuna 4",3,60,57,69999,"USD","VENTA DEPTO 3 AMB EN LA BOCA OPORTUNIDAD!","Departamento","Venta",-34.629506,-58.3662
"202106","CABA","Comuna 4",3,58,55,91900,"USD","VENTA TRES AMBIENTES LA BOCA PISO ALTO","Departamento","Venta",-34.6373187,-58.361124
"202106","GBA","Pilar",3,78,70,100000,"USD","Venta 3 ambientes - Departamento a estrenar","Departamento","Venta",-34.445029,-58.794727
"202106","GBA","Pilar",3,118,60,120000,"USD","Departamento en venta 3 amb. Villa Morra Pilar","Departamento","Venta",-34.4533675,-58.9031974
"202106","GBA","Pilar",3,118,78,140000,"USD","Venta 3 ambientes - Departamento a estrenar","Departamento","Venta",-34.445029,-58.794727
"202106","GBA","Pilar",3,78,70,120000,"USD","Venta 3 ambientes - Departamento a estrenar","Departamento","Venta",-34.445029,-58.794727
"202106","CABA","Comuna 7",3,63,63,95000,"USD","venta dpto 3 amb. en flores","Departamento","Venta",-34.6300812,-58.4638939
"202106","CABA","Comuna 7",3,73,63,110000,"USD","Venta departamento 3 ambientes Flores","Departamento","Venta",-34.6321642,-58.4660247
"202106","CABA","Comuna 7",3,71,66,215000,"USD","Departamento 3 ambientes en venta en Flores","Departamento","Venta",-34.6351211,-58.4513154
"202106","GBA","Morón",3,75,70,149000,"USD","Departamento 3 ambientes en venta en Castelar Norte","Departamento","Venta",-34.6426257,-58.6480142
"202106","CABA","Comuna 13",3,78,72,165000,"USD","DPTO. EN VENTA - Nuñez -3/4 ambientes","Departamento","Venta",-34.539737,-58.470429
"202106","CABA","Comuna 13",3,104,100,278000,"USD","PISO 3 AMB+DEPENDENCIA Y COCHERA EN VENTA EN NUÑEZ","Departamento","Venta",-34.5536864,-58.4618735
"202106","CABA","Comuna 13",3,120,120,361000,"USD","DPTO 3 AMB C/BALCON TERRAZA Y PARRILLA - A ESTRENAR!","Departamento","Venta",-34.5570886,-58.4692652
"202106","CABA","Comuna 1",3,83,75,175000,"USD","VENTA DEPARTAMENTO 3 AMB C/DEP EN RETIRO","Departamento","Venta",-34.5924216,-58.3765703
"202106","CABA","Comuna 5",3,74,67,175000,"USD","3 Ambientes y 1/2, Baulera. Yatay esq. Rivadavia","Departamento","Venta",-34.6141095,-58.4277921
"202106","CABA","Comuna 5",3,52,50,112000,"USD","3 Ambientes-Almagro al frente esquina doble balcon","Departamento","Venta",-34.6059333,-58.4291016
"202106","CABA","Comuna 5",3,73,56,164900,"USD","73m2 Excelente depto de 3 amb con cochera, Balcón y Patio,  A mts de Av Corrientes y Subte B.","Departamento","Venta",-34.6047466,-58.430632
"202106","GBA","Escobar",3,42,42,42000,"USD","VENTA HARAS SANTA MARIA LOFTS - PRE VENTA EN POZO","Departamento","Venta",-34.3395744,-58.8476918
"202106","CABA","Comuna 13",3,93,93,440000,"USD","Jade Boulevar Las Cañitas Olleros 1645","Departamento","Venta",-34.5640617,-58.4373774
"202106","CABA","Comuna 13",3,108,108,480000,"USD","JADE boulevar Las Cañitas Olleros 1645","Departamento","Venta",-34.5640442,-58.437278
"202106","CABA","Comuna 14",3,54,52,129000,"USD","VENTA - LINDISIMO 3 AMB.– LA IMPRENTA -  LUZ Y SOL","Departamento","Venta",-34.5672968513,-58.4340970414
"202106","CABA","Comuna 14",3,96,72,240000,"USD","Venta, Depto 3 ambientes, Palermo , Cochera.","Departamento","Venta",-34.5800477612,-58.440527916
"202106","CABA","Comuna 14",3,155,155,749000,"USD","Alquiler departamento 155m2 con cochera en Las Cañitas","Departamento","Venta",-34.5660411,-58.4349594
"202106","CABA","Comuna 3",3,65,65,111000,"USD","VENTA - 3 AMB + DEPENDENCIA - CONGRESO","Departamento","Venta",-34.6092344,-58.3957999
"202106","GBA","La Plata",3,44,44,63000,"USD","Departamento 2 dormitorios 1 baño en venta 50mts2 totales- La Plata","Departamento","Venta",-34.928059939,-57.9580932688
"202106","GBA","La Plata",3,47,44,75000,"USD","departamento en venta la plata1 dormitorio","Departamento","Venta",-34.9304789767,-57.9492155712
"202106","CABA","Comuna 2",3,75,75,240000,"USD","Departamento - Recoleta","Departamento","Venta",-34.5908475,-58.3873076
"202106","CABA","Comuna 12",3,69,67,185000,"USD","VENTA DEPARTAMENTO SAAVEDRA -3 AMB. – M. LUMINOSO –PIL/BAUL -C. LARRALDE 2600","Departamento","Venta",-34.550026,-58.4700105
"202106","CABA","Comuna 12",3,51,45,126000,"USD","VENTA 3 AMBIENTES CON BALCON SAAVEDRA","Departamento","Venta",-34.555022,-58.482274
"202106","CABA","Comuna 3",3,65,65,111000,"USD","VENTA - 3 AMB + DEPENDENCIA - BALVANERA","Departamento","Venta",-34.6092344,-58.3957999
"202106","CABA","Comuna 3",3,78,70,160000,"USD","VENTA- 3 AMB C/DEPENDENCIA- RECICLADO- EN CONGRESO","Departamento","Venta",-34.6097831,-58.3963822
"202106","CABA","Comuna 6",3,80,75,158000,"USD","Venta 3 Ambientes Soleado Balcon Dependencia/Escritorio Cochera Movil Baulera Caballito","Departamento","Venta",-34.623965,-58.4412393
"202106","CABA","Comuna 6",3,63,44,120000,"USD","Venta 3 amb Bajas Expensas Dos Patios","Departamento","Venta",-34.617166316,-58.4532684088
"202106","CABA","Comuna 6",3,80,75,158000,"USD","Venta 3 Ambientes Barrio Ingles Soleado Balcon Dependencia Cochera Movil Baulera Caballito","Departamento","Venta",-34.623965,-58.4412393
"202106","CABA","Comuna 6",3,94,63,188000,"USD","Venta Dpto. 3 amb //31 m2 de balcon-baulera/zona","Departamento","Venta",-34.6244061651,-58.4483760595
"202106","CABA","Comuna 15",3,85,75,230000,"USD","Departamento 3 ambientes a estrenar con Cochera INCLUIDA Balcón Full Amenities","Departamento","Venta",-34.6079120104,-58.449568608
"202106","CABA","Comuna 6",3,74,64,215000,"USD","Departamento - Caballito","Departamento","Venta",-34.630393,-58.449115
"202106","CABA","Comuna 15",3,85,75,230000,"USD","VENTA Departamento 3 ambientes a estrenar Cochera INCLUIDA Balcón Full Amenities","Departamento","Venta",-34.6079120104,-58.449568608
"202106","CABA","Comuna 6",3,70,67,165000,"USD","Caballito Norte I 3 Ambientes","Departamento","Venta",-34.6194495,-58.4521172
"202106","CABA","Comuna 9",3,250,125,169900,"USD","VENTA DEPTO DE 3 AMBIENTES CON PATIO Y PARRILLA","Departamento","Venta",-34.6554,-58.5091
"202106","CABA","Comuna 9",3,60,60,52000,"USD","Departamento de 3 ambientes con Balcón aterrazado","Departamento","Venta",-34.6573109,-58.5074644
"202106","CABA","Comuna 1",3,61,59,99900,"USD","DEPARTAMENTO VENTA SAN TELMO 3 AMBIENTES LUMINOSO","Departamento","Venta",-34.6185812,-58.3777428
"202106","CABA","Comuna 15",3,72,63,195000,"USD","VENTA 3 AMBIENTES CON COCHERA EN AGRONOMIA","Departamento","Venta",-34.588901,-58.489902
"202106","GBA","Avellaneda",3,56,53,50000,"USD","Departamento 3 ambientes piso 3 Torre 5","Departamento","Venta",-34.6569838,-58.3697524
"202106","GBA","Avellaneda",3,78,53,85000,"USD","DEPARTAMENTO DE TRES AMBIENTES CON DOS PATIOS!!!!","Departamento","Venta",-34.6682996688,-58.3554267883
"202106","GBA","La Matanza",3,56,54,105000,"USD","DPTO 3 AMB C/BALCON LUMINOSO EXCELENTE UBICACION","Departamento","Venta",-34.643963,-58.563514
"202106","GBA","San Isidro",3,78,74,185000,"USD","Departamento - S.Isi.-Vias/Rolon","Departamento","Venta",-34.4700213,-58.5245154
"202106","GBA","San Isidro",3,76,66,190000,"USD","Departamento de tres ambientes con cochera cubierta en venta en el barrio de San Isidro","Departamento","Venta",-34.4705704,-58.5199362
"202106","CABA","Comuna 10",3,83,83,105000,"USD","Venta departamento 3 ambientes Montecastro","Departamento","Venta",-34.6257,-58.5131
"202106","GBA","Berazategui",3,70,62,95000,"USD","Departamento 3 amb. centro Berazategui. a nuevo","Departamento","Venta",-34.7599129242,-58.2029485703
"202106","CABA","Comuna 2",3,65,65,180000,"USD","DEPARTAMENTO TRES AMB BARRIO NORTE","Departamento","Venta",-34.5938474,-58.4036031
"202106","CABA","Comuna 2",3,70,66,192000,"USD","DEPTO EN VENTA EN ONCE/BARRIO NORTE DE 3 AMB C/ COCHERA - MUY LUMINOSO","Departamento","Venta",-34.5995189,-58.4030027
"202106","CABA","Comuna 1",3,73,73,139000,"USD","Venta dúplex 3 amb .reciclado, barrio San Nicolas","Departamento","Venta",-34.5998499206,-58.3792877197
"202106","CABA","Comuna 15",3,100,76,238000,"USD","DEPARTAMENTO 3 AMBIENTES EN VENTA EN VILLA CRESPO CON PATIO AMENITIES A ESTRENAR","Departamento","Venta",-34.6049614,-58.4379923
"202106","CABA","Comuna 15",3,71,58,219500,"USD","VENTA DEPARTAMENTO 3 AMBIENTES VILLA CRESPO","Departamento","Venta",-34.5977603,-58.4408726
"202106","CABA","Comuna 15",3,85,76,215000,"USD","DEPARTAMENTO 3 AMBIENTES EN VENTA EN VILLA CRESPO A ESTRENAR TODOS LOS AMENITIES","Departamento","Venta",-34.6047669,-58.4380176
"202106","CABA","Comuna 15",3,85,76,245000,"USD","DEPARTAMENTO 3 AMBIENTES EN VENTA EN VILLA CRESPO TODOS LOS AMENITIES A ESTRENAR","Departamento","Venta",-34.6049388,-58.4379464
"202106","CABA","Comuna 14",3,72,62,169900,"USD","DEPARTAMENTO OBRA VENTA VILLA CRESPO 3 AMB 72 M2","Departamento","Venta",-34.5924993,-58.4343122
"202106","CABA","Comuna 15",3,95,81,225000,"USD","Departamento venta V Crespo 3 ambientes b/terraza","Departamento","Venta",-34.606794,-58.445247
"202106","CABA","Comuna 11",3,84,62,204700,"USD","VENTA DEPARTAMENTO 3 AMBIENTES CON BALCON DEVOTO","Departamento","Venta",-34.611826,-58.516024
"202106","CABA","Comuna 1",3,214,202,1800000,"USD","ALVEAR TOWER • OPORTUNIDAD: REVENTA EXCLUSIVA","Departamento","Venta",-34.6123355,-58.3609723
"202106","CABA","Comuna 12",3,95,72,196000,"USD","VENTA DEPARTAMENTO 3 AMBIENTES CON TERRAZA PROPIA EN VILLA URQUIZA","Departamento","Venta",-34.5783902,-58.4895716
"202106","CABA","Comuna 12",3,64,58,130000,"USD","Venta departamento 3amb con balcón, Villa Urquiza","Departamento","Venta",-34.5735991173,-58.4902882576
"202106","CABA","Comuna 12",3,84,72,195000,"USD","Departamento 3 amb parrilla terraza Villa Urquiza","Departamento","Venta",-34.574606,-58.49797
"202106","GBA","Tres de Febrero",3,60,60,76000,"USD","Departamento 3 ambientes venta Ciudadela a nuevo","Departamento","Venta",-34.639192,-58.5422938
"202106","GBA","Tres de Febrero",3,73,56,15000,"USD","Venta Emprendimiento 2 y 3 Ambientes Spazio Palms","Departamento","Venta",-34.5995565,-58.5535073
"202106","GBA","General San Martín",3,64,61,140000,"USD","Venta departamento 3 ambientes de categoria","Departamento","Venta",-34.554409,-58.559167
"202106","CABA","Comuna 7",4,233,152,245000,"USD","PH - Flores","PH","Venta",-34.6373357,-58.4653784
"202106","GBA","Lanús",4,107,81,155000,"USD","Duplex 3 habitaciones con patio y cochera","PH","Venta",-34.7025718,-58.3853091
"202106","CABA","Comuna 5",4,93,80,110000,"USD","PH 4 ambientes en 93 metros con patio sin expensas","PH","Venta",-34.611745,-58.424648
"202106","CABA","Comuna 15",4,162,150,170000,"USD","PH 4 AMB PATERNAL SIN EXP TERRAZA 50 MTR! EXCELENT","PH","Venta",-34.604699,-58.459856
"202106","CABA","Comuna 3",4,111,80,130000,"USD","Venta PH 4 Ambientes Con Terraza Balvanera","PH","Venta",-34.6174739,-58.4053056
"202106","CABA","Comuna 6",4,148,130,159000,"USD","PH Caballito 4 ambientes a reciclar","PH","Venta",-34.6244988664,-58.4384840727
"202106","CABA","Comuna 1",4,86,86,160000,"USD","Hermoso PH 3 Ambientes a nuevo 86 m2! OPORTUNIDAD","PH","Venta",-34.6199113,-58.3699787
"202106","GBA","La Matanza",4,152,120,125000,"USD","EXC. UBICACION. COCHERA,PATIO QUINCHO Y TERRAZA","PH","Venta",-34.666341,-58.551679
"202106","GBA","San Isidro",4,139,98,228000,"USD","VTA PH DUPLEX 4 AMB C/ COCH/PARR JARDÍN OLIVOS","PH","Venta",-34.507606,-58.517456
"202106","CABA","Comuna 10",4,131,110,109800,"USD","Venta Ph 4 ambientes en Floresta-Velez Sarsfield","PH","Venta",-34.6373274,-58.4788191
"202106","CABA","Comuna 11",4,109,91,220000,"USD","PH DUPLEX 4 AMBIENTES C/ PATIO Y BALCÓN AL FRENTE","PH","Venta",-34.6062472,-58.4800465
"202106","CABA","Comuna 12",4,202,126,159000,"USD","GRAN PH  EN LA MEJOR ZONA DE V. PUEYRREDON","PH","Venta",-34.5847871,-58.4995103
"202106","CABA","Comuna 11",4,130,110,215000,"USD","PH EN VENTA 4 AMB MODERNO  VILLA GRAL.MITRE CABA","PH","Venta",-34.6115184,-58.4758316
"202106","GBA","Merlo",4,285,155,150000,"USD","Casa 5 Ambientes en Venta en Merlo","Casa","Venta",-34.6832112,-58.718468
"202106","GBA","Merlo",4,142,97,165000,"USD","VENTA CASA TRES HABITACIONES MERLO EXCELENTE UBICA","Casa","Venta",-34.674632,-58.726676
"202106","GBA","Merlo",4,244,152,99000,"USD","VENTA - CASA DE 4 AMBIENTES CON JARDIN Y COCHERA","Casa","Venta",-34.64839,-58.720078
"202106","GBA","Pilar",4,600,160,189000,"USD","CASA EN VENTA EN SANTA ELENA","Casa","Venta",-34.3929984,-58.8833574
"202106","GBA","Pilar",4,150,129,175000,"USD","VENTA CASA PILAR DEL ESTE SANTA ELENA A ESTRENAR","Casa","Venta",-34.3917540428,-58.8853883743
"202106","GBA","Pilar",4,150,120,160000,"USD","Venta casa Pilar del Este Barrio San Eduardo 4 ambientes","Casa","Venta",-34.3864305,-58.8625715
"202106","GBA","Tigre",4,118,103,110000,"USD","Casa en Venta en General Pacheco","Casa","Venta",-34.4580702,-58.6493792
"202106","GBA","Morón",4,168,168,195000,"USD","VENTA CASA AMERICANA CASTELAR NORTE","Casa","Venta",-34.6466205,-58.6478544
"202106","GBA","Escobar",4,118,104,120000,"USD","Venta de pozo casa 4 amb con Jardin Decs Tortugas","Casa","Venta",-34.4448811,-58.7238123
"202106","GBA","Escobar",4,125,87,145000,"USD","Venta casa de campo 3 dormitorios- CC Los Horneros","Casa","Venta",-34.3699412,-58.7525622
"202106","GBA","Escobar",4,174,170,245000,"USD","Casa en venta - 3 dorm. - Pileta - Frente al Golf","Casa","Venta",-34.3699412,-58.7525622
"202106","GBA","Quilmes",4,238,106,135000,"USD","VENTA CASA 3 AMB GARAGE/JARDIN/QUINCH- BERNAL OEST","Casa","Venta",-34.7191902,-58.3049293
"202106","GBA","Quilmes",4,110,110,110000,"USD","CASA 4 AMBIENTES LOTE PROPIO BERNAL","Casa","Venta",-34.716716,-58.305725
"202106","GBA","La Plata",4,122,122,75000,"USD","CASA EN VENTA EN LA PLATA - 3 DORMITORIOS Y GARAGE","Casa","Venta",-34.899955,-57.951995
"202106","GBA","La Plata",4,360,110,98000,"USD","182 bis entre 71 y 72. Casa a estrenar en venta 2 dormitorios","Casa","Venta",-35.0015755526,-58.0065437731
"202106","GBA","La Plata",4,108,108,115000,"USD","Casa venta 3 dormitorios 1 baño 2 cocheras Terreno 376 mts 2 - Villa Parque Sicardi","Casa","Venta",-34.9897010914,-57.8605013544
"202106","GBA","La Plata",4,130,110,143000,"USD","Casa de dos dorm con parque en City Bell","Casa","Venta",-34.8733808,-58.0545237
"202106","CABA","Comuna 12",4,175,94,245000,"USD","Impecable Ph tipo casa- 4amb-118 m2+ gran terraza!","Casa","Venta",-34.5415229,-58.4785358
"202106","CABA","Comuna 9",4,204,172,300000,"USD","Venta Casa 4 amb c/coch, patio,parrilla Mataderos","Casa","Venta",-34.6497033,-58.5082136
"202106","GBA","Avellaneda",4,126,126,180000,"USD","Venta de Casa 4 ambientes con cochera, jardín, quincho y terraza en Wilde (27278)","Casa","Venta",-34.7052962,-58.3134068
"202106","GBA","Ituzaingó",4,155,135,144000,"USD","VENTA CASA 4 AMBIENTES EN ITUZAINGO NORTE","Casa","Venta",-34.6432718,-58.6881523
"202106","GBA","Ituzaingó",4,240,240,550000,"USD","Casa - Altos Del Sol","Casa","Venta",-34.606288,-58.7067677
"202106","GBA","San Isidro",4,189,167,345000,"USD","VENTA CASA DE 4 AMB. C/PILETA EN MARTINEZ","Casa","Venta",-34.4833754,-58.5003433
"202106","GBA","José C. Paz",4,174,174,120000,"USD","VENTA CASA CUATRO AMBIENTES AMPLIO PARQUE","Casa","Venta",-34.5249838,-58.7487538
"202106","GBA","José C. Paz",4,100,90,70000,"USD","Casa 4 amb Venta en José C. Paz c/Coch, Jar, Patio","Casa","Venta",-34.5079752,-58.7604192
"202106","GBA","San Vicente",4,186,132,228000,"USD","VENTA CASA A ESTRENAR - CLUB DE CAMPO SANTA RITA","Casa","Venta",-34.9697811,-58.4681056
"202106","CABA","Comuna 11",4,168,95,255000,"USD","Casa tipo Dúplex 4 amb reciclado a nuevo con terraza - Cochera","Casa","Venta",-34.6096287,-58.5248315
"202106","CABA","Comuna 10",4,344,344,399999,"USD","OPORTUNIDAD: CASA - TERRENO EN DEVOTO","Casa","Venta",-34.6173468,-58.5039783
"202106","GBA","Almirante Brown",4,138,118,117000,"USD","Chalet con amplio lote y excelente ubicación","Casa","Venta",-34.8568505,-58.3828397
"202106","GBA","Esteban Echeverría",4,125,98,45000,"USD","VENTA 2 CASAS en Guillón. Oportunidad de Inversión","Casa","Venta",-34.8231606,-58.4439784
"202106","GBA","Esteban Echeverría",4,305,205,170000,"USD","Casa en venta Luis Guillón 920 de lote PERMUTA","Casa","Venta",-34.8072826,-58.4483977
"202106","CABA","Comuna 7",4,68,68,155000,"USD","Departamento 4 ambientes, Venta en Flores, A Nuevo","Departamento","Venta",-34.618389,-58.4647663
"202106","CABA","Comuna 7",4,84,84,125000,"USD","VENTA DEPARTAMENTO 4 AMBIENTES FLORES MUY LUMINOSO","Departamento","Venta",-34.636028,-58.4696878
"202106","GBA","Lanús",4,89,75,169900,"USD","VENTA SEMIPISO 4 AMB. AL FRENTE C/BALCON LANUSITA","Departamento","Venta",-34.7066022,-58.3943193
"202106","GBA","Morón",4,100,94,330000,"USD","Apartment - Castelar","Departamento","Venta",-34.6538004226,-58.6435029939
"202106","CABA","Comuna 1",4,335,310,2100000,"USD","Venta Piso Torre Mario R. Alvarez Recoleta","Departamento","Venta",-34.5902531,-58.3847764
"202106","CABA","Comuna 5",4,88,82,190000,"USD","venta semipiso  con cochera y baulera en almagro","Departamento","Venta",-34.6100433,-58.4288317
"202106","CABA","Comuna 14",4,282,256,2200000,"USD","Departamento - Palermo Chico","Departamento","Venta",-34.575276,-58.4077379
"202106","CABA","Comuna 14",4,276,255,2500000,"USD","RETASADO!!! LE PARC ALCORTA! OFERTA!","Departamento","Venta",-34.5789897,-58.4014247
"202106","CABA","Comuna 14",4,92,82,192000,"USD","VENTA 4 AMB   SUPER LUMINOSO NORESTE PISO ALTO","Departamento","Venta",-34.580136,-58.4258859
"202106","CABA","Comuna 13",4,160,160,475000,"USD","Piso alto! Espectacular vista en Belgrano 4 amb. dependencia cochera baulera. Seguridad 24hs","Departamento","Venta",-34.5614727,-58.4454242
"202106","CABA","Comuna 13",4,104,96,250000,"USD","DEPTO VENTA 4 AMBIENTES RECICLADO BELGRANO","Departamento","Venta",-34.5606328,-58.4581939
"202106","CABA","Comuna 14",4,151,140,750000,"USD","RETASADO! Edificio La Imprenta !!! Amenities INCREIBLES! Detalles Unicos.","Departamento","Venta",-34.5664783,-58.4341001
"202106","CABA","Comuna 14",4,227,185,1180000,"USD","Impresionante Torre La Imprenta! 3 suites   dep. 2 coch. Escucha ofertas!","Departamento","Venta",-34.5664783,-58.4341001
"202106","CABA","Comuna 13",4,151,129,490000,"USD","VENTA: PISO ALTO LIBERTAD 4 AMB C/ DEP 2 COCH BAUL","Departamento","Venta",-34.562520416,-58.4412360191
"202106","CABA","Comuna 10",4,100,90,240000,"USD","Departamento - Flores","Departamento","Venta",-34.6280609,-58.477467
"202106","GBA","La Plata",4,69,64,140000,"USD","departamentos en venta la plata 2 dormitorios","Departamento","Venta",-34.9303382399,-57.9489995645
"202106","CABA","Comuna 2",4,150,136,385000,"USD","Venta, Departamento, 4 ambientes, Dependencia con servicio, Balcón, Recoleta.","Departamento","Venta",-34.5889719,-58.3993707
"202106","CABA","Comuna 1",4,142,133,320000,"USD","DEPARTAMENTO 4 AMBIENTES VENTA RECOLETA C/COCHERA","Departamento","Venta",-34.5971144,-58.3861726
"202106","CABA","Comuna 1",4,96,96,239000,"USD","Venta Departamento 4 Ambientes + Dep. Recoleta","Departamento","Venta",-34.5963753,-58.3872039
"202106","CABA","Comuna 2",4,165,146,520000,"USD","VENTA RECOLETA 4 AMB - DUPLEX RECICLADO -COCHERA","Departamento","Venta",-34.59393,-58.388543
"202106","CABA","Comuna 2",4,89,79,235000,"USD","VENTA O PERMUTA 4 AMBIENTES RECOLETA VISTA ABIERTA","Departamento","Venta",-34.5957374,-58.4029087
"202106","CABA","Comuna 6",4,170,126,285000,"USD","Depto 4 amb c/cochera balcón aterrazado, Caballito","Departamento","Venta",-34.6216696,-58.4426763
"202106","CABA","Comuna 6",4,110,100,340000,"USD","Departamento venta en Caballito 4 ambientes","Departamento","Venta",-34.62922,-58.43843
"202106","CABA","Comuna 6",4,76,70,190000,"USD","Venta 4 ambientes Caballito/ Silencioso/Luminoso","Departamento","Venta",-34.6173870524,-58.439412117
"202106","CABA","Comuna 6",4,238,191,290000,"USD","VENTA CABALLITO 4 AMB BALCON PATIO BAJÓ DE PRECIO","Departamento","Venta",-34.61658,-58.436113
"202106","GBA","Avellaneda",4,73,73,70000,"USD","VENTA 4AMB. FRENTE COMPLEJO HABITACIONAL WILDE","Departamento","Venta",-34.6910512,-58.3019648
"202106","GBA","La Matanza",4,69,66,160000,"USD","Depto 4 Amb Venta R. Mejía. Edificio Imperio","Departamento","Venta",-34.640529,-58.5626516
"202106","GBA","San Isidro",4,87,83,238000,"USD","MARTINEZ DEPTO 4 AMB COCH. BAUL. BALCÓN. SEGURIDAD","Departamento","Venta",-34.487415,-58.500037
"202106","CABA","Comuna 1",4,131,122,170000,"USD","Venta depto. 4 ambientes - Muy luminoso - San Nicolas","Departamento","Venta",-34.6077281458,-58.3850687184
"202106","CABA","Comuna 11",4,238,195,693000,"USD","Venta 4 ambientes +Dep  en V. Devoto - Exclusivo -","Departamento","Venta",-34.604289,-58.5181301
"202106","CABA","Comuna 1",4,76,65,95000,"USD","Venta Departamento 4 ambientes San Cristobal","Departamento","Venta",-34.618588,-58.38815
"202106","GBA","La Matanza",5,217,122,170000,"USD","PH 5 AMBIENTES RAMOS MEJIA CON JARDIN Y PISCINA","PH","Venta",-34.642653,-58.551679
"202106","GBA","Tres de Febrero",5,217,144,144000,"USD","AMPLISIMO PH 5 AMB.SIN EXPENSAS, CON 2 PATIOS CERCA AV RIVADAVIA Y GRAL PAZ","PH","Venta",-34.6421915,-58.5369093
"202106","GBA","Merlo",5,160,160,170000,"USD","Casa - San Antonio De Padua","Casa","Venta",-34.6648749,-58.6984021
"202106","GBA","Pilar",5,150,120,255000,"USD","Venta Casa 5 Ambientes Barrio Cerrado Habitat","Casa","Venta",-34.4296794121,-58.8379267058
"202106","GBA","Pilar",5,269,210,369000,"USD","GB PROPIEDADES-Casa - La Pradera I","Casa","Venta",-34.4118515,-58.8435529
"202106","GBA","Tigre",5,260,220,365000,"USD","Excelente Casa 4 habitaciones con vista al rio Vila Marina","Casa","Venta",-34.3705753,-58.688061
"202106","GBA","Tigre",5,237,196,365000,"USD","Casa - Santa Catalina","Casa","Venta",-34.3787839,-58.7030388
"202106","GBA","Tigre",5,290,290,650000,"USD","Venta casa Bancalari El Encuentro 4 Dorm. piscina","Casa","Venta",-34.431326,-58.687536
"202106","GBA","San Miguel",5,100,100,49000,"USD","CASA A REFACCIONAR EN VENTA- MORENO - GRAN TERRENO","Casa","Venta",-34.5972133,-58.7254229
"202106","GBA","Morón",5,180,180,215000,"USD","Venta casa 4 dormitorios   Cochera   Parrilla - Haedo","Casa","Venta",-34.6538075,-58.590041
"202106","GBA","Escobar",5,236,140,248000,"USD","Casa en venta Escobar Barrio Alamo Alto","Casa","Venta",-34.3943892,-58.769132
"202106","GBA","La Plata",5,112,112,52000,"USD","CASA A LA VENTA","Casa","Venta",-34.890197449,-57.9897022247
"202106","GBA","La Plata",5,95,75,55000,"USD","Casa en Venta 3 Dormitorios y cochera Villa Elvira","Casa","Venta",-34.9417837071,-57.916059494
"202106","GBA","La Plata",5,150,150,148000,"USD","Casa en venta, 4 dormitorios en Villa Elisa","Casa","Venta",-34.8828154048,-58.1007671356
"202106","CABA","Comuna 12",5,212,172,449500,"USD","VENTA  CASA 5 AMBIENTES SAAVEDRA JARDIN PISCINA","Casa","Venta",-34.557444,-58.488172
"202106","CABA","Comuna 12",5,195,132,366000,"USD","Casa 5 ambientes en Venta en Saavedra, con pileta","Casa","Venta",-34.5456709,-58.4744617
"202106","CABA","Comuna 6",5,250,200,430000,"USD","Casa 5 Ambientes venta Caballito 2 cocheras","Casa","Venta",-34.6112993,-58.4316446
"202106","GBA","Avellaneda",5,226,226,233000,"USD"," Casa 5 amb. en Gerli c/cochera, patio y terraza ","Casa","Venta",-34.6906269,-58.3738656
"202106","GBA","Avellaneda",5,293,252,115000,"USD","CASA A RECICLAR CON LOCAL COMERCIAL INACTIVO","Casa","Venta",-34.6778363,-58.3416171
"202106","GBA","San Isidro",5,355,355,620000,"USD","Casa - Las Lomas-Santa Rita","Casa","Venta",-34.4918892691,-58.5725711208
"202106","GBA","San Isidro",5,290,260,669000,"USD","Casa Barrio Cerrado Virasoro Village, Pileta.","Casa","Venta",-34.4760822,-58.5685211
"202106","GBA","San Isidro",5,143,143,270000,"USD","Casa - Las Lomas-Horqueta","Casa","Venta",-34.4768115794,-58.5681420769
"202106","GBA","San Isidro",5,436,436,590000,"USD","Casa venta Martínez, + 6 amb., jardín y pileta","Casa","Venta",-34.493431,-58.497051
"202106","GBA","San Isidro",5,350,350,560000,"USD","Casa 5 ambientes Lomas de San Isidro - Oportunidad","Casa","Venta",-34.4828944,-58.5522701
"202106","GBA","San Miguel",5,164,152,139000,"USD","VENTA CASA 5 AMBIENTES, PARQUE, GARAJE, PLAYROOM","Casa","Venta",-34.5421154,-58.7310666
"202106","GBA","Vicente López",5,149,149,260000,"USD","Casa en muy buen estado con cochera y patio","Casa","Venta",-34.5330044,-58.5254615
"202106","GBA","Vicente López",5,295,270,289000,"USD","Casa en venta en La Lucila 5 ambientes 2 plantas","Casa","Venta",-34.4997603,-58.4927969
"202106","GBA","Vicente López",5,164,120,174900,"USD","RETASADO! DUPLEX tipo CASA en VENTA - Impecable!!","Casa","Venta",-34.524481,-58.536577
"202106","CABA","Comuna 7",5,247,193,250000,"USD","Casa - Parque Chacabuco","Casa","Venta",-34.6377067,-58.4486824
"202106","GBA","Esteban Echeverría",5,170,150,230000,"USD","Casa - Santa Ines - Venta - Canning - Esteban Echeverría -","Casa","Venta",-34.7663557,-58.4929788
"202106","GBA","Esteban Echeverría",5,312,268,700000,"USD","Casa - Saint Thomas Oeste","Casa","Venta",-34.8887327,-58.4982515
"202106","CABA","Comuna 7",5,254,135,390000,"USD","Hermoso Departamento en DUPLEX de 5 amb.   STUDIO con Terraza y Cochera","Departamento","Venta",-34.6236181,-58.4589771
"202106","CABA","Comuna 14",5,359,322,2100000,"USD","Triplex con balcón terraza y terraza. Dos cocheras.","Departamento","Venta",-34.5808887,-58.3988595
"202106","CABA","Comuna 1",5,220,207,379000,"USD","Depto Venta,Recoleta. 5 amb con patio.Oportunidad!","Departamento","Venta",-34.592979,-58.38763
"202106","CABA","Comuna 2",5,197,183,420000,"USD","Departamento - Recoleta","Departamento","Venta",-34.5904514,-58.4018963
"202106","CABA","Comuna 3",5,148,123,224500,"USD","Departamento 4 ambientes Venta  Balvanera Cochera","Departamento","Venta",-34.6051414,-58.4054314
"202106","CABA","Comuna 3",5,148,123,224500,"USD","Departamento 4 ambientes Venta  Once Cochera","Departamento","Venta",-34.6051414,-58.4054314
"202106","CABA","Comuna 14",5,234,130,540000,"USD","Dto 5 amb-234 m2 -2 coch-terraza propia-Colegiales","Departamento","Venta",-34.5702622,-58.4479746
"202106","CABA","Comuna 1",5,100,100,85000,"USD","DEPARTAMENTO 4 AMBIENTES","Departamento","Venta",-34.6264416,-58.3829705
"202106","CABA","Comuna 8",5,76,71,50000,"USD","VENTA 5 AMBIENTES VILLA SOLDATI BALCON RENOVADO","Departamento","Venta",-34.6667230937,-58.4426498419
"202106","GBA","La Plata",6,438,393,250000,"USD","Venta de PH con unidad complementaria y sótano.","PH","Venta",-34.9091617205,-57.9546833038
"202106","GBA","Lanús",6,385,240,320000,"USD","Casa Chalet 6 ambientes Fondo Cochera Lanus Oeste","Casa","Venta",-34.7061939,-58.4076898
"202106","GBA","La Plata",6,154,65,120000,"USD","Casa en esquina, 3 dorm. City Bell. La Plata","Casa","Venta",-34.8687705122,-58.0346031827
"202106","GBA","La Plata",6,220,190,410000,"USD","Casa 3 dormitorios venta en Gonnet parque y pileta","Casa","Venta",-34.8806883,-58.0047464
"202106","GBA","La Matanza",6,360,199,310000,"USD","VENTA CASA 6 AMB. C/COCH, QUINCHO, RAMOS MEJIA","Casa","Venta",-34.659069,-58.551228
"202106","GBA","San Isidro",6,307,307,390000,"USD","CASA  MARTINEZ CON PILETA ACEPTA PERMUTA menor","Casa","Venta",-34.504399,-58.513548
"202106","GBA","Tres de Febrero",6,216,162,160000,"USD","CASA VENTA ALTOS DE PODESTA 6 AMBIENTES C/PISCINA","Casa","Venta",-34.5827794,-58.6029679
"202106","GBA","Tres de Febrero",6,380,380,185000,"USD","VENTA DEPOSITO + 2 VIVIENDAS EN  CASEROS","Casa","Venta",-34.6221289,-58.5752916
"202106","CABA","Comuna 11",6,465,372,519000,"USD","Casa sobre lote propio 5 ambientes en Camarones 2450","Casa","Venta",-34.6090964,-58.4742643
"202106","GBA","General Rodríguez",6,172,172,230000,"USD","VENTA CASA LAS LAJAS BARRIO CERRADO OPORTUNIDAD","Casa","Venta",-34.59019,-58.933716
"202106","CABA","Comuna 1",6,157,145,359000,"USD","VENTA DEPARTAMENTO RECOLETA 6 AMB COCHERA","Departamento","Venta",-34.5968449,-58.3848155
"202106","CABA","Comuna 1",6,140,140,185000,"USD","VENTA DEPTARTAMENTO 6 AMB - APTO PROFESIONAL","Departamento","Venta",-34.6066763,-58.3914241
"202106","GBA","La Plata",6,161,161,185000,"USD","Piso 3 dormitorios con cochera en venta La Plata","Departamento","Venta",-34.9125629,-57.9501356
"202106","CABA","Comuna 6",6,161,152,430000,"USD","Departamento - Caballito","Departamento","Venta",-34.625026,-58.4363267
"202106","CABA","Comuna 1",6,152,152,230000,"USD","VENTA DEPARTAMENTO 6 AMBIENTES TRIBUNALES","Departamento","Venta",-34.606575,-58.383424
"202106","GBA","Pilar",7,4400,466,890000,"USD","Venta casa en Farm de 7 ambientes pileta, jardin 2 cocheras","Casa","Venta",-34.4354454,-58.8261746
"202106","GBA","Pilar",7,340,320,395000,"USD","VENTA CASA 5 AMBIENTES CON 340m2 Cub y 1300m2 Lote","Casa","Venta",-34.4431759,-58.8531263
"202106","GBA","Tigre",7,950,420,980000,"USD","VENTA CASA AL LAGO EN LOS LAGOS NORDELTA.","Casa","Venta",-34.4033560579,-58.6624882153
"202106","GBA","Tigre",7,218,218,160000,"USD","VENTA CASA 7 AMBIENTES  EL TALAR C/LOCAL Y JARDÍN","Casa","Venta",-34.4656471078,-58.6579370499
"202106","CABA","Comuna 4",7,235,190,214000,"USD","CASA MULTIFAMILIAR EN VENTA EN POMPEYA","Casa","Venta",-34.6462343,-58.4282887
"202106","GBA","La Plata",7,320,320,315000,"USD","CASA DE 4 DORMITORIOS EN VENTA LA PLATA","Casa","Venta",-34.9290725,-57.9349634
"202106","GBA","La Matanza",7,206,200,140000,"USD","Casa de 7 ambientes en venta en Villa Madero","Casa","Venta",-34.7048760035,-58.4718132019
"202106","GBA","San Isidro",7,320,320,640000,"USD","Casa impecable con gran Jardin - Martinez -B.Aleman","Casa","Venta",-34.5050485,-58.5203897
"202106","GBA","Vicente López",7,233,233,420000,"USD","CASA 7 AMBS 2 PTAS.EN VENTA VTE LOPEZ A RECICLAR","Casa","Venta",-34.5242132,-58.4822631
"202106","GBA","Vicente López",7,544,320,549000,"USD","Casa en venta 7 ambientes (Munro)","Casa","Venta",-34.5339968,-58.5235531
"202106","CABA","Comuna 9",7,220,220,280000,"USD","Casa en lote propio, ideal para tres familias y local comercial en la esquina","Casa","Venta",-34.6417874,-58.4726724
"202106","GBA","Malvinas Argentinas",7,482,428,1450000,"USD","Casa - San Jorge Village","Casa","Venta",-34.484963,-58.6858733
"202106","CABA","Comuna 6",8,379,313,460000,"USD","VENTA DOS PH MAS LOCAL COMERCIAL EN BLOQUE","PH","Venta",-34.609422,-58.4502495
"202106","GBA","Pilar",8,530,385,1300000,"USD","Importante propiedad, calidad y diseños exclusivos. Ayres de Pilar, Km 43.5 Panamericana Pilar","Casa","Venta",-34.4360197,-58.8012019
"202106","GBA","Tigre",8,407,407,790000,"USD","Muy linda casa en venta a La Laguna en Los Lagos, Nordelta","Casa","Venta",-34.4016825605,-58.6609847001
"202106","GBA","La Plata",8,302,258,225000,"USD","Casa en Venta 5 dormitorios. Zona Bosque!!","Casa","Venta",-34.9167498978,-57.9326838255
"202106","CABA","Comuna 9",8,260,260,190000,"USD","CASA LOTE PROPIO de 8,66 x 18,70 IDEAL TALLER TEXTIL","Casa","Venta",-34.6479993,-58.4667629
"202106","CABA","Comuna 13",9,250,250,219900,"USD","PH en VENTA COLEGIALES ZONA DISTRITO AUDIOVISUAL","PH","Venta",-34.5756067,-58.4506254
"202106","CABA","Comuna 2",9,220,201,595000,"USD","Departamento - Barrio Norte - Esquina de Montevideo y Arenales","Departamento","Venta",-34.5951619456,-58.3901018921
"202106","GBA","La Matanza",9,205,180,135000,"USD","VENTA 4 DEPTOS. EN BLOCK. ALDO BONZI. LOTE  352m²","Casa","Venta",-34.7133692,-58.519318
"202106","CABA","Comuna 1",1,30,30,86000,"USD","VENTA MONOAMBIENTE MONSERRAT","Departamento","Venta",-34.611567,-58.374021
"202106","GBA","Tigre",1,35,35,30000,"ARS","Alquiler Departamento Monoambiente  - Ciudad De Tigre","Departamento","Alquiler",-34.4256821234,-58.5748328811
"202106","CABA","Comuna 5",1,33,32,79500,"USD","Departamento - Almagro","Departamento","Venta",-34.6088007,-58.4261835
"202106","CABA","Comuna 12",1,40,36,99500,"USD","Excelente monoambiente  a estrenar perfectamente divisible, edificio de categoría, con pileta!","Departamento","Venta",-34.5679882,-58.4768372
"202106","CABA","Comuna 14",1,42,30,40000,"ARS","Mono ambiente con TERRAZA  ¨totalmente amoblado¨ en  Palermo Soho!!!","Departamento","Alquiler",-34.5832422,-58.4288754
"202106","CABA","Comuna 14",1,40,37,49000,"ARS","HERMOSO """"mono ambiente  DIVISIBLE en alquiler ¨ PALERMO SOHO!!","Departamento","Alquiler",-34.5837048,-58.4283556
"202106","CABA","Comuna 14",1,43,43,55000,"ARS","Departamento amoblado en alquiler, Palermo Soho","Departamento","Alquiler",-34.5834061,-58.4236873
"202106","CABA","Comuna 1",1,40,40,98000,"USD","Congreso Edificio Histórico Ambiente Divisible Apto Profesional con cochera Optativa","Departamento","Venta",-34.608704,-58.3878956
"202106","CABA","Comuna 12",1,23,23,59000,"USD","OPORTUNIDAD! Depto luminoso -balcon y vista-u$s59.000","Departamento","Venta",-34.5544907,-58.4775857
"202106","CABA","Comuna 6",1,33,30,67000,"USD","Venta monoambiente en Caballito - Aranguren 1552-","Departamento","Venta",-34.6191366,-58.4538473
"202106","GBA","Hurlingham",1,27,27,16000,"ARS","Monoambiente con cochera metros de Acceso Oeste!","Departamento","Alquiler",-34.6303262,-58.6435213
"202106","CABA","Comuna 12",1,34,34,25000,"ARS","VENTA 1 AMBIENTE VILLA URQUIZA A ESTRNAR","Departamento","Alquiler",-34.5666559,-58.4874833
"202106","CABA","Comuna 15",1,33,29,86000,"USD","Monoambiente con B Terraza y Amenities","Departamento","Venta",-34.5819439,-58.4710037
"202106","CABA","Comuna 12",1,45,33,30000,"ARS","VENTA 1 AMBIENTE DIVISIBE BALCON ATERRAZADO VILLA URQUIZA A ESTRNAR","Departamento","Alquiler",-34.5666559,-58.4874833
"202106","GBA","Vicente López",1,65,55,48000,"ARS","En Alquiler , excelente loft  con cochera , gran complejo, en Olivos, Florida ","Departamento","Alquiler",-34.534645,-58.486243
"202106","GBA","Tigre",1,31,31,50000,"USD","venta departamento en club nautico hacoaj tigre","Departamento","Venta",-34.4323988878,-58.566570282
"202106","CABA","Comuna 5",1,27,24,79500,"USD","Departamento Muy Luminoso Balcon Parrilla y SUM","Departamento","Venta",-34.6070194,-58.4170173
"202106","GBA","Vicente López",1,110,55,69000,"ARS","Loft en alquiler en Vte Lopez con terraza privada","Departamento","Alquiler",-34.5173539519,-58.477120726
"202106","CABA","Comuna 12",1,43,40,85000,"USD","Venta ph monoambiente sin expensas saavedra","PH","Venta",-34.5540499,-58.4918149
"202106","CABA","Comuna 12",1,50,36,143000,"USD","Venta monoambiente divisible saavedra c/patio","Departamento","Venta",-34.5495042,-58.4826061
"202106","CABA","Comuna 12",1,57,40,148000,"USD","Venta monoambiente divisible saavedra c/patio","Departamento","Venta",-34.5495042,-58.4826061
"202106","CABA","Comuna 6",1,40,35,97000,"USD","DEPARTAMENTO 40M2 CABALLITO DOBLE BALCÓN PISO ALTO","Departamento","Venta",-34.6289351642,-58.4386181831
"202106","CABA","Comuna 11",1,38,35,98000,"USD","Departamento venta 1 ambiente Caballito","Departamento","Venta",-34.605846,-58.465319
"202106","CABA","Comuna 13",1,31,27,52158,"USD","VENTA EN CONSTRUCCION - 1 AMBIENTE - A ESTRENAR","Departamento","Venta",-34.5788110737,-58.4553337097
"202106","GBA","Lanús",1,38,34,62000,"USD","OPORTUNIDAD VENTA MONOAMBIENTE A ESTRENAR LANUS","Departamento","Venta",-34.70252,-58.3955
"202106","CABA","Comuna 3",1,31,31,60000,"USD","BALVANERA,1amb, divisible; contfren; exc estado,yubicacin,","Departamento","Venta",-34.6094235,-58.4118369
"202106","CABA","Comuna 6",1,35,35,80000,"USD","VENTA DEPARTAMENTO MONOAMBIENTE A ESTRENAR EN CABALLITO","Departamento","Venta",-34.6101087,-58.4507912
"202106","CABA","Comuna 6",1,33,33,75000,"USD","VENTA DEPARTAMENTO MONOAMBIENTE A ESTRENAR EN CABALLITO","Departamento","Venta",-34.6101087,-58.4507912
"202106","CABA","Comuna 6",1,38,33,89000,"USD","VENTA DEPARTAMENTO MONOAMBIENTE A ESTRENAR EN CABALLITO","Departamento","Venta",-34.6101087,-58.4507912
"202106","CABA","Comuna 3",2,87,87,109000,"USD","Venta PH 2AMB Balvanera Abasto","PH","Venta",-34.607272,-58.410402
"202106","CABA","Comuna 11",2,50,44,78500,"USD","VENTA PH 2 AMBIENTES A RECICLAR 50 M2 SIN EXPENSAS","PH","Venta",-34.6111275,-58.5013232
"202106","GBA","Merlo",2,63,43,25000,"ARS","Alquiler 2 Amb con PATIO Merlo Norte","Departamento","Alquiler",-34.661774,-58.7301453
"202106","GBA","Lanús",2,50,45,67000,"USD","VENTA DPTO 2 AMB A ESTRE. 50M2 C/BALC. R.ESCALADA","Departamento","Venta",-34.723842,-58.403118
"202106","GBA","Escobar",2,38,35,64000,"USD","DEPARTAMENTO 2 AMBIENTES A ESTRENAR CON AMENITIES","Departamento","Venta",-34.3538517,-58.8015405
"202106","CABA","Comuna 2",2,47,47,104900,"USD","VENTA 2 AMB BALCÓN FRENTE. BAJAS EXPENSAS","Departamento","Venta",-34.595608,-58.40995
"202106","CABA","Comuna 2",2,61,58,150000,"USD","Venta Departamento tipo Loft C/Cochera Barrio Nort","Departamento","Venta",-34.5966575,-58.4118329
"202106","CABA","Comuna 2",2,61,58,133000,"USD","Venta Departamento tipo Loft Barrio Norte","Departamento","Venta",-34.5966575,-58.4118329
"202106","GBA","Lomas de Zamora",2,52,47,99000,"USD","INCREIBLE 2 AMB A MTS EST. LOSA RA - SUM - PILET-","Departamento","Venta",-34.7411396,-58.3930372
"202106","GBA","Tres de Febrero",2,45,40,23000,"ARS","DEPARTAMENTO 2 AMB 100m estacion Bosch","Departamento","Alquiler",-34.5895937,-58.5747497
"202106","GBA","General San Martín",2,58,43,105000,"USD","Semipiso 2 ambtes c/ parrillas, jaccuzy y Sum","Departamento","Venta",-34.58042,-58.538475
"202106","CABA","Comuna 15",2,141,79,75000,"ARS","PH - Villa Ortuzar - Dos ambientes - Sin expensas","PH","Alquiler",-34.5830307,-58.4611101
"202106","GBA","Quilmes",2,52,52,39000,"USD","Departamento - Bernal Oeste","Departamento","Venta",-34.718324,-58.3015685
"202106","CABA","Comuna 14",2,43,43,89000,"USD","PH 2 ambientes! Impecable, 2do por escalera","PH","Venta",-34.5825491,-58.41735
"202106","GBA","Avellaneda",2,42,36,68000,"USD","PH - Wilde, Avellaneda - GRAN OPORTUNIDAD","PH","Venta",-34.7006843,-58.3182375
"202106","GBA","Lanús",2,150,80,24000,"ARS","PH - Piñeyro","PH","Alquiler",-34.6738458,-58.3964574
"202106","GBA","Vicente López",2,34,34,37000,"ARS","Rawson 3489","PH","Alquiler",-34.4994934,-58.4881393
"202106","GBA","Lomas de Zamora",2,35,35,19000,"ARS","PH - Temperley","PH","Alquiler",-34.7678337,-58.3792534
"202106","GBA","La Plata",2,35,35,15000,"ARS","145 e/ 49 y 49bis Casa en VENTA - San Carlos","Casa","Alquiler",-34.9542507,-57.9937682
"202106","CABA","Comuna 5",2,50,38,35000,"ARS","Departamento de 2 ambientes con patio - Boedo","Departamento","Alquiler",-34.6328009,-58.4193715
"202106","GBA","Pilar",2,45,42,95000,"USD","Departamento en venta Club Bamboo Pilar","Departamento","Venta",-34.4094582,-58.8504502
"202106","GBA","Tigre",2,55,45,103000,"USD","Departamento - Tigre","Departamento","Venta",-34.4336936,-58.578899
"202106","GBA","Tigre",2,83,54,56000,"ARS","Departamento - General Pacheco","Departamento","Alquiler",-34.4529709,-58.6429866
"202106","GBA","Tigre",2,59,47,115000,"USD","Departamento en venta 2 ambientes en Palmas Plaza, Rincón de Milberg","Departamento","Venta",-34.4188109,-58.5890623
"202106","GBA","Tigre",2,55,52,142000,"USD","Departamento en Venta 2 amb con vista al Rio!!!","Departamento","Venta",-34.4196928,-58.5784799
"202106","GBA","Tigre",2,65,53,113300,"USD","Departamento - Tigre centro","Departamento","Venta",-34.4256942,-58.5741798
"202106","GBA","Tigre",2,70,65,115000,"USD","Departamento - Lago Escondido","Departamento","Venta",-34.412264,-58.6770169
"202106","GBA","Tigre",2,64,52,50000,"ARS","Departamento - Santa Barbara","Departamento","Alquiler",-34.4384878,-58.6261768
"202106","CABA","Comuna 7",2,42,42,35000,"ARS","Departamento - Flores","Departamento","Alquiler",-34.6298768,-58.4718528
"202106","CABA","Comuna 13",2,60,51,48000,"ARS","Divino 2 Ambientes con Toilette y Balcon Aterrazado - SUM - GYM - Parrilla - Solarium","Departamento","Alquiler",-34.54307,-58.4625859
"202106","CABA","Comuna 1",2,34,34,27000,"ARS","Alquiler 2 ambientes para Vivienda y Apto Prof Retiro","Departamento","Alquiler",-34.5973398,-58.3724984
"202106","CABA","Comuna 14",2,40,40,79000,"USD","Departamento 2 amb, muy luminoso, 40m2 - Almagro","Departamento","Venta",-34.598541,-58.4232843
"202106","CABA","Comuna 13",2,47,45,129000,"USD","Departamento  belgrano 2 ambientes luminoso amenities","Departamento","Venta",-34.5616429,-58.4681134
"202106","CABA","Comuna 14",2,34,34,85000,"USD","Departamento - Palermo","Departamento","Venta",-34.5828496,-58.4263709
"202106","CABA","Comuna 14",2,53,53,132500,"USD","VENTA  GRAN 2 AMB  Y 1/2  COCHERA FIJA Y CUBIERTA","Departamento","Venta",-34.573962,-58.4338643
"202106","CABA","Comuna 14",2,31,31,32000,"ARS","Alquiler departamento de 2 ambientes","Departamento","Alquiler",-34.5742791,-58.4220231
"202106","CABA","Comuna 2",2,38,35,25000,"ARS","Luminoso 2 ambientes a pocas cuadras de Parque Las Heras","Departamento","Alquiler",-34.5864517,-58.4060947
"202106","CABA","Comuna 14",2,44,40,30000,"ARS","Departamento 2 ambientes al frente - Alquiler -  Palermo Hollywood","Departamento","Alquiler",-34.5792579,-58.4310356
"202106","CABA","Comuna 14",2,43,43,34000,"ARS","""""Las Cañitas"""", Matienzo y Arce, 2 Amb, Alq Tradicional, Amoblado, Equipado, Aire Ac, Lav","Departamento","Alquiler",-34.5685933568,-58.4342880906
"202106","CABA","Comuna 14",2,47,38,135000,"USD","Venta 2 amb   COCHERA - Palermo Hollywood","Departamento","Venta",-34.5776372,-58.4350512
"202106","CABA","Comuna 4",2,39,39,64000,"USD","Departamento - Pompeya","Departamento","Venta",-34.6454558,-58.4202115
"202106","GBA","Quilmes",2,62,49,85000,"USD","Departamento en venta Quilmes Centro","Departamento","Venta",-34.7177595,-58.2451171
"202106","GBA","Quilmes",2,40,40,18000,"ARS","Departamento - Quilmes","Departamento","Alquiler",-34.7221756,-58.2595051
"202106","CABA","Comuna 4",2,65,62,33000,"ARS","Departamento - Barracas","Departamento","Alquiler",-34.638806,-58.3734311
"202106","CABA","Comuna 4",2,49,48,79000,"USD","Departamento - 2 Ambientes -  Barracas","Departamento","Venta",-34.6387066394,-58.370362654
"202106","CABA","Comuna 13",2,62,53,165000,"USD","Departamento 2 ambientes, cochera opcional - Belgrano/ Nuñez","Departamento","Venta",-34.5517083,-58.4524769
"202106","CABA","Comuna 13",2,37,37,40000,"ARS","Alquiler. 2 ambientes. Departamento. Belgrano","Departamento","Alquiler",-34.5559729,-58.444909
"202106","CABA","Comuna 13",2,46,41,135000,"USD","Venta Dos Ambientes en Belgrano con Balcón y Cochera","Departamento","Venta",-34.5555126,-58.440549
"202106","CABA","Comuna 13",2,40,38,80000,"USD","BAJAS EXPENSAS - VENTA DEPARTAMENTO 1 DORMITORIO - BAÑO - LAVADERO INDEPENDIENTE","Departamento","Venta",-34.5680293,-58.4537768
"202106","CABA","Comuna 1",2,38,38,25000,"ARS","Hermoso 2 ambientes en edificio de categoria , a metros de Av. Entre Rios","Departamento","Alquiler",-34.6125298,-58.3921873
"202106","GBA","La Plata",2,40,40,52000,"USD","7 e/ 58 y 59 Departamento en VENTA - La Plata","Departamento","Venta",-34.9197074577,-57.9430031609
"202106","GBA","La Plata",2,45,45,75000,"USD","Departamento venta 1 dormitorio 45mts2  - La Plata","Departamento","Venta",-34.9115916735,-57.9474288058
"202106","GBA","La Plata",2,52,52,72000,"USD","Departamento 1 dormitorio 1 baño 52mts2 totales - La Plata","Departamento","Venta",-34.9251923056,-57.9622560572
"202106","CABA","Comuna 15",2,42,40,30000,"ARS","Departamento - Paternal","Departamento","Alquiler",-34.6017537,-58.4653545
"202106","CABA","Comuna 2",2,54,51,190000,"USD","Departamento de 2 ambientes con cochera en Recoleta.","Departamento","Venta",-34.5890659,-58.4034618
"202106","CABA","Comuna 2",2,50,50,38000,"ARS","Alquiler 2 ambientes Barrio Norte","Departamento","Alquiler",-34.5938013,-58.4057676
"202106","CABA","Comuna 3",2,70,70,35000,"ARS","Departamento 2 ambientes apto profesional amoblado en Balvanera","Departamento","Alquiler",-34.6055941,-58.3955966
"202106","CABA","Comuna 3",2,45,45,27000,"ARS","C/DEP D/ENTRADA V/ABIERTA T/SOL - TUCUMAN AL 2600 - Balvanera","Departamento","Alquiler",-34.6016977,-58.4045202
"202106","CABA","Comuna 3",2,64,46,27500,"ARS","Alquiler Departamento 2 ambientes 2 patios apto profesional Congreso","Departamento","Alquiler",-34.6141716,-58.4042097
"202106","CABA","Comuna 6",2,60,40,104000,"USD","2amb en venta  - P.Centenario","Departamento","Venta",-34.6064996,-58.4356338
"202106","CABA","Comuna 6",2,45,45,35000,"ARS","Departamento - Caballito","Departamento","Alquiler",-34.6273584,-58.4280512
"202106","CABA","Comuna 9",2,50,45,190000,"USD","Departamento 2 ambientes muy luminoso con 6 cocheras  - Mataderos","Departamento","Venta",-34.6550857,-58.5076573
"202106","CABA","Comuna 13",2,76,51,212000,"USD","Departamento - Colegiales - Dos ambientes - Patio con parrilla propia","Departamento","Venta",-34.5762567,-58.454458
"202106","CABA","Comuna 13",2,32,32,28000,"ARS","Alquiler 2 ambientes en Virrey Arredondo y Cabildo - Apto Profesional","Departamento","Alquiler",-34.5668699,-58.4506025
"202106","GBA","San Isidro",2,68,50,160000,"USD","Canchero dos ambientes con cochera subterránea y amenities increíbles","Departamento","Venta",-34.4640232,-58.529063
"202106","GBA","San Isidro",2,43,43,82000,"USD","Departamento - Beccar","Departamento","Venta",-34.4602555,-58.5279822
"202106","GBA","San Isidro",2,59,53,293000,"USD","Departamento - San Isidro","Departamento","Venta",-34.472717,-58.504349
"202106","CABA","Comuna 2",2,42,40,33000,"ARS","Departamento - Barrio Norte","Departamento","Alquiler",-34.596109,-58.4069638
"202106","CABA","Comuna 14",2,44,36,37000,"ARS","Departamento - Barrio Norte","Departamento","Alquiler",-34.5886843,-58.4096635
"202106","CABA","Comuna 2",2,54,50,43000,"ARS","Departamento - Barrio Norte","Departamento","Alquiler",-34.5881724494,-58.4066976874
"202106","CABA","Comuna 1",2,40,40,30000,"ARS","Dpto. Alquiler, 2 ambientes, BARRIO NORTE,   balcón, amoblado","Departamento","Alquiler",-34.5973161,-58.3725995
"202106","CABA","Comuna 2",2,27,27,25000,"ARS","Departamento - Barrio Norte","Departamento","Alquiler",-34.5935801,-58.4031955
"202106","CABA","Comuna 1",2,40,40,88000,"USD","Dpto. Alquiler, 2 ambientes, BARRIO NORTE,   balcón, amoblado","Departamento","Venta",-34.5973161,-58.3725995
"202106","CABA","Comuna 2",2,54,51,190000,"USD","Venta 2 ambientes con cochera en Barrio Norte / Recoleta.","Departamento","Venta",-34.5890659,-58.4034618
"202106","CABA","Comuna 2",2,50,45,60000,"ARS","AMOBLADO - LARGO PLAZO - 50 M2 - LIVING Y DORMITORIO C/COCINA COMEDOR - LAVADERO","Departamento","Alquiler",-34.587477,-58.4002324
"202106","CABA","Comuna 15",2,52,46,37000,"ARS","Departamento 2 ambientes en villa crespo","Departamento","Alquiler",-34.6003004,-58.4394944
"202106","CABA","Comuna 1",2,70,70,400000,"USD","Departamento - Puerto Madero - 2 Amb - cochera - the link towers - amenities -","Departamento","Venta",-34.6200926,-58.3610901
"202106","CABA","Comuna 15",2,67,55,170000,"USD","Achalay!  EDIFICIO DE CASAS! CON COCHERA BALCON TERRAZA CON PARRILLA PROPIA.","Departamento","Venta",-34.5776433,-58.4722717
"202106","CABA","Comuna 12",2,35,35,85000,"USD","Departamento - Villa Urquiza","Departamento","Venta",-34.5758087,-58.4835957
"202106","CABA","Comuna 12",2,62,52,214172,"USD","Departamento 2 ambientes c/dependencia en Av. Olazabal al 4800","Departamento","Venta",-34.5752248,-58.4842584
"202106","CABA","Comuna 15",2,73,55,180000,"USD","Achalay!  EDIFICIO DE CASAS! CON COCHERA INCLUIDA BALCON TERRAZA CON PARRILLA PROPIA.","Departamento","Venta",-34.5776433,-58.4722717
"202106","CABA","Comuna 15",2,57,51,145000,"USD","Achalay!  EDIFICIO DE CASAS! CON COCHERA BALCON TERRAZA CON PARRILLA PROPIA.","Departamento","Venta",-34.5776433,-58.4722717
"202106","CABA","Comuna 12",2,57,47,183393,"USD","Departamento 2 ambientes en Av. Olazabal al 4800","Departamento","Venta",-34.5752248,-58.4842584
"202106","CABA","Comuna 12",2,77,67,278381,"USD","Departamento 2 ambientes en Av. Olazabal al 4800","Departamento","Venta",-34.5752248,-58.4842584
"202106","GBA","Vicente López",2,42,42,31000,"ARS","Departamento - Florida","Departamento","Alquiler",-34.5303955,-58.4823822
"202106","GBA","Vicente López",2,38,38,45000,"ARS","Departamento - Olivos-Vias/Rio","Departamento","Alquiler",-34.5137966,-58.4747174
"202106","GBA","Lomas de Zamora",2,47,45,26000,"ARS","Sarmiento 181, Lomas de Zamora","Departamento","Alquiler",-34.7622231,-58.4044999
"202106","CABA","Comuna 6",2,43,43,40000,"ARS","Departamento - Parque Chacabuco","Departamento","Alquiler",-34.6280796,-58.4319382
"202106","CABA","Comuna 11",2,104,54,165000,"USD","Departamento - Villa del Parque","Departamento","Venta",-34.6137684949,-58.4971875754
"202106","CABA","Comuna 5",2,38,38,67500,"USD","2 ambientes Muy Luminoso!! a  Reciclar","Departamento","Venta",-34.6048257,-58.4226562
"202106","CABA","Comuna 14",2,41,37,119000,"USD","VENTA DPTO 2 AMB  LAS CAÑITAS C/ BALCON. LUMINOSO","Departamento","Venta",-34.5678305,-58.4333428
"202106","CABA","Comuna 5",2,44,38,84000,"USD","venta 2 amb en lo mejor de caballito, OPORTUNIDAD!","Departamento","Venta",-34.6111434,-58.4311357
"202106","CABA","Comuna 10",2,43,40,35000,"ARS","ALQUILER DEPARTAMENTO 2 AMBIENTES NUEVO - FLORES","Departamento","Alquiler",-34.6349412,-58.4739962
"202106","GBA","La Matanza",2,45,41,68800,"USD","DEPARTAMENTO VENTA EN VILLA LUZURIAGA 2 AMBIENTES","Departamento","Venta",-34.6563126,-58.5817417
"202106","CABA","Comuna 11",2,45,42,35000,"ARS","Alquiler, Departamento de 2 Amb lateral, Paternal","Departamento","Alquiler",-34.6072632,-58.4678587
"202106","CABA","Comuna 14",2,112,63,210000,"USD","PH tipo loft 2 amb con patio y terraza Palerm Soho","PH","Venta",-34.587924,-58.428846
"202106","GBA","Morón",2,47,45,87000,"USD","DEPARTAMENTO 2 AMBIENTES CASTELAR NORTE","Departamento","Venta",-34.650554,-58.64103
"202106","CABA","Comuna 14",2,59,53,250000,"USD","VENTA 2 AMBIENTES  TORRE DE LUJO PALERMO VIEW","Departamento","Venta",-34.5759895,-58.4302331
"202106","CABA","Comuna 2",2,67,60,57000,"ARS","Alquiler departamento opción amoblado balcón vista","Departamento","Alquiler",-34.5887805,-58.4001194
"202106","CABA","Comuna 6",2,41,39,72000,"USD","DEPARTAMENTO 2 AMBIENTES VENTA CABALLITO C/BALCÓN","Departamento","Venta",-34.6231303,-58.4373873
"202106","GBA","Tres de Febrero",2,47,42,55000,"USD","DEPARTAMENTO 2 AMBIENTES VENTA PATIO PALOMAR","Departamento","Venta",-34.6060509,-58.5940476
"202106","GBA","Tres de Febrero",2,40,38,62000,"USD","Departamento Venta a Estrenar en Martín Coronado","Departamento","Venta",-34.5882133,-58.5902616
"202106","CABA","Comuna 14",2,62,56,58000,"ARS","DEPARTAMENTO ALQUILER 2 AMBIENTES PALERMO","Departamento","Alquiler",-34.575155,-58.441939
"202106","CABA","Comuna 2",2,43,40,44000,"ARS","Alquiler 2 amb NUEVO en Recoleta Amenities Balcón","Departamento","Alquiler",-34.587589,-58.4013521
"202106","CABA","Comuna 1",2,42,42,32000,"ARS","Alquiler 2 amb luminoso Uruguay y Santa Fe","Departamento","Alquiler",-34.5962973,-58.3870723
"202106","CABA","Comuna 6",2,40,40,80000,"USD","VENTA DEPARTAMENTO 2 AMBIENTES CABALLITO","Departamento","Venta",-34.6108066,-58.4333659
"202106","GBA","Morón",2,60,54,89900,"USD","VENTA DEPARTAMENTO A ESTRENAR CON COCHERA","Departamento","Venta",-34.6523692,-58.6377395
"202106","CABA","Comuna 5",2,39,39,82500,"USD","Encantador 2 Amb. Apto Profe. A mts Subte. Almagro","Departamento","Venta",-34.6119706,-58.4193864
"202106","CABA","Comuna 2",2,33,30,65000,"USD","DEPARTAMENTO 2 AMBIENTES EN VENTA ALMAGRO","Departamento","Venta",-34.5992898,-58.4131779
"202106","CABA","Comuna 14",2,48,45,158000,"USD","Departamento 2 ambientes venta - Palermo Amenities","Departamento","Venta",-34.5780095,-58.4335212
"202106","CABA","Comuna 11",2,43,39,107000,"USD","Luminoso depto 2 amb a estrenar Paternal c/balcón","Departamento","Venta",-34.605846,-58.465319
"202106","CABA","Comuna 14",2,47,40,25000,"ARS","2 ambientes en alquiler en Alto Palermo","Departamento","Alquiler",-34.5920788,-58.4124539
"202106","CABA","Comuna 15",2,38,34,107900,"USD","Departamento venta 2 ambientes Caballito","Departamento","Venta",-34.60553,-58.457981
"202106","CABA","Comuna 15",2,41,37,121900,"USD","Departamento venta 2 ambientes Caballito","Departamento","Venta",-34.60553,-58.457981
"202106","CABA","Comuna 15",2,38,34,109000,"USD","Departamento venta 2 amb Caballito","Departamento","Venta",-34.605538,-58.457878
"202106","CABA","Comuna 1",2,40,36,59000,"USD","VENTA DEPARTAMENTO 2 AMBIENTES SAN TELMO","Departamento","Venta",-34.6199189,-58.3748503
"202106","CABA","Comuna 15",2,52,44,89000,"USD","UNICO 2 ambientes 2 balcones C/PARRI V.Crespo","Departamento","Venta",-34.6033283,-58.4556684
"202106","CABA","Comuna 12",2,62,50,132000,"USD","Departamento a estrenar 2 amb. Gran balcón cochera","Departamento","Venta",-34.569319,-58.497866
"202106","CABA","Comuna 12",2,37,34,105000,"USD","VENTA 2 AMBIENTES APTO PROFESIONAL VILLA URQUIZA","Departamento","Venta",-34.5713375565,-58.4870481491
"202106","CABA","Comuna 12",2,79,52,141000,"USD","Dpto a estrenar 2 1/ amb. balcon terraza cochera","Departamento","Venta",-34.569319,-58.497866
"202106","GBA","Tres de Febrero",2,44,40,76500,"USD","DEPARTAMENTO A ESTRENAR VENTA 2 AMB SAENZ PEÑA","Departamento","Venta",-34.5996269,-58.5274177
"202106","GBA","Tres de Febrero",2,58,50,79900,"USD","DEPARTAMENTO 2 AMBIENTES VENTA CASEROS A ESTRENAR","Departamento","Venta",-34.6075681278,-58.5692310333
"202106","CABA","Comuna 10",2,48,44,104999,"USD","DEPARTAMENTO 2 AMB. A ESTRENAR VENTA MONTE CASTRO","Departamento","Venta",-34.618367,-58.50062
"202106","CABA","Comuna 14",2,50,30,95000,"USD","Venta 2 AMB c/ Patio de 20 m2 PALERMO SOHO","Departamento","Venta",-34.588516,-58.423291
"202106","CABA","Comuna 12",2,56,49,99500,"USD","DPTO 2 AMBIENTES EN VENTA EN SAAVEDRA CON PATIO","Departamento","Venta",-34.552973,-58.477724
"202106","CABA","Comuna 13",2,58,50,100455,"USD","VENTA EN CONSTRUCCION - 2 AMBIENTES - A ESTRENAR","Departamento","Venta",-34.5788110737,-58.4553337097
"202106","CABA","Comuna 15",2,28,28,68000,"USD","Departamento 2 amb. venta Villa Crespo AP PROF","Departamento","Venta",-34.600217,-58.430656
"202106","CABA","Comuna 11",2,46,40,109000,"USD","VENTA - 2 AMBIENTES - VILLA DEL PARQUE","Departamento","Venta",-34.6099346655,-58.4979057312
"202106","GBA","Merlo",2,54,50,75000,"USD","Venta Departamento Merlo Centro - Cerca hospital","Departamento","Venta",-34.667986,-58.720857
"202106","GBA","Morón",2,44,42,55000,"USD","Venta Depto Moron centro permuta lote ph","Departamento","Venta",-34.647818,-58.624014
"202106","GBA","Morón",2,55,53,94900,"USD","VENTA DEPARTAMENTO A ESTRENAR CON COCHERA","Departamento","Venta",-34.6523692,-58.6377395
"202106","GBA","La Matanza",2,30,24,40000,"USD","Departamento 2 ambientes venta sin expensas","Departamento","Venta",-34.6663558,-58.573816
"202106","GBA","Ensenada",2,55,45,70000,"USD","Departamento en Venta 1 Dormi con Balcon, La Plata","Departamento","Venta",-34.8977742,-57.9421953
"202106","GBA","La Plata",2,38,38,50000,"USD","Departamento en venta de 1 dormitorio","Departamento","Venta",-34.9197034,-57.9273068
"202106","GBA","Lanús",2,47,41,79000,"USD","OPORTUNIDAD!DPTO 2 AMB. VIP LANUSITA 30% Y 30 CTAS","Departamento","Venta",-34.700909,-58.397185
"202106","GBA","Moreno",2,48,42,79000,"USD","VENTA-MORENO-2AMB-A ESTRENAR-C/BALCON TERRAZA","Departamento","Venta",-34.644479,-58.792355
"202106","GBA","Morón",2,58,38,66000,"USD","2AMB A ESTRENAR CON TERRAZA PRIVADA+FINANCIA","Departamento","Venta",-34.6538183,-58.6265351
"202106","CABA","Comuna 13",2,46,35,116000,"USD","Venta Departamento 2 Ambientes con Patio Belgrano","Departamento","Venta",-34.559047,-58.4466889
"202106","CABA","Comuna 6",2,52,48,125000,"USD","VENTA DEPARTAMENTO DOS AMBIENTES CABALLITO","Departamento","Venta",-34.6109408,-58.4432299
"202106","CABA","Comuna 6",2,52,48,130000,"USD","VENTA DEPARTAMENTO DOS AMBIENTES CABALLITO","Departamento","Venta",-34.6109408,-58.4432299
"202106","CABA","Comuna 6",2,53,45,122000,"USD","VENTA DEPARTAMENTO 2 AMBIENTES A ESTRENAR EN CABALLITO","Departamento","Venta",-34.6101087,-58.4507912
"202106","CABA","Comuna 6",2,44,40,110000,"USD","A ESTRENAR VENTA 2 AMB - CABALLITO SUR","Departamento","Venta",-34.6213155,-58.4470734
"202106","CABA","Comuna 6",2,85,45,193000,"USD","VENTA DEPARTAMENTO 2 AMBIENTES A ESTRENAR EN CABALLITO","Departamento","Venta",-34.6101087,-58.4507912
"202106","CABA","Comuna 6",2,60,51,140000,"USD","VENTA DEPARTAMENTO 2 AMBIENTES A ESTRENAR EN CABALLITO","Departamento","Venta",-34.6101087,-58.4507912
"202106","CABA","Comuna 15",2,72,50,109000,"USD","VENTA DEPARTAMENTO 2 AMBIENTES CON PATIO CABA","Departamento","Venta",-34.6048129691,-58.4541749954
"202106","CABA","Comuna 12",2,44,38,115000,"USD","Venta DEPARTAMENTO 2 ambientes en  Villa Urquiza.","Departamento","Venta",-34.569011,-58.502605
"202106","CABA","Comuna 11",2,71,52,89900,"USD","Departamento 2 ambientes con patio bajas expensas","Departamento","Venta",-34.6105,-58.470225
"202106","GBA","La Plata",3,100,100,88000,"USD","Duplex 2 Dorm c/cochera Los Hornos","Casa","Venta",-34.953915,-57.97215
"202106","GBA","San Fernando",3,120,90,85000,"ARS","Casa Punta Chica","Casa","Alquiler",-34.4582088,-58.5429566
"202106","GBA","Pilar",3,109,79,99000,"USD","PROMO.IMBATIBLE!! Venta duplex Pilar a estrenar!","Departamento","Venta",-34.447822,-58.874846
"202106","CABA","Comuna 5",3,93,78,135000,"USD","Departamento 3 Ambientes Dependencia Balcón Patio","Departamento","Venta",-34.6034353555,-58.4322023392
"202106","GBA","La Plata",3,65,60,90000,"USD","Departamento Venta La Plata","Departamento","Venta",-34.9239399,-57.964325
"202106","GBA","Vicente López",3,67,55,180000,"USD","Departamento en venta 3 amb en florida con cochera","Departamento","Venta",-34.5374552,-58.5031668
"202106","GBA","Moreno",3,69,69,80000,"USD","PH 3 Ambientes Venta Moreno","PH","Venta",-34.6542781,-58.7816789
"202106","GBA","Morón",3,71,71,115000,"USD","PH - Villa Sarmiento","PH","Venta",-34.6363751,-58.570979
"202106","CABA","Comuna 13",3,56,56,130000,"USD","Departamento - Belgrano","PH","Venta",-34.5561137,-58.4601839
"202106","CABA","Comuna 14",3,114,84,230000,"USD","Venta PH 4 ambientes con patio y terraza en Belgrano","PH","Venta",-34.567904,-58.4466986
"202106","CABA","Comuna 9",3,180,90,100000,"USD","PH - Mataderos","PH","Venta",-34.6711799,-58.4994231
"202106","CABA","Comuna 9",3,94,72,110000,"USD","PH - Mataderos","PH","Venta",-34.6529732,-58.509236
"202106","GBA","Ituzaingó",3,130,60,90000,"USD","PH - Ituzaingó Sur","PH","Venta",-34.6672778,-58.6881685
"202106","CABA","Comuna 10",3,71,66,120000,"USD","Departamento - Villa Luro","PH","Venta",-34.6409446,-58.5008251
"202106","CABA","Comuna 15",3,46,46,89000,"USD","Villa Crespo: Excelente tres ambientes PH !","PH","Venta",-34.6027382,-58.4392394
"202106","GBA","Merlo",3,100,100,95000,"USD","Casa - San Antonio De Padua","Casa","Venta",-34.6773864,-58.6902947
"202106","GBA","Lanús",3,125,110,125000,"USD","OPORTUNIDAD - Venta Directa","Casa","Venta",-34.7286872,-58.4011212
"202106","GBA","Lanús",3,120,120,60000,"USD","Casa - Lanús Este","Casa","Venta",-34.7250387,-58.3679736
"202106","GBA","Quilmes",3,76,76,80000,"USD","Casa de 2 dormitorios 2 baños 145mts2 totales  - Quilmes Oeste","Casa","Venta",-34.7511697,-58.277555
"202106","GBA","La Plata",3,134,90,60000,"USD","Casa - La Plata","Casa","Venta",-34.8824255,-57.9693869
"202106","GBA","Ituzaingó",3,70,70,89900,"USD","Casa - Ituzaingó","Casa","Venta",-34.6658791,-58.685842
"202106","GBA","Ituzaingó",3,100,100,85000,"USD","Casa - Ituzaingó","Casa","Venta",-34.6769353,-58.673561
"202106","GBA","San Isidro",3,65,65,138000,"USD","Casa PH Martínez 3 ambientes patio cerca avenida y plaza","Casa","Venta",-34.4908629,-58.5141622
"202106","GBA","San Miguel",3,98,98,30000,"ARS","Casa - San Miguel","Casa","Alquiler",-34.5403065401,-58.7387119767
"202106","GBA","Malvinas Argentinas",3,59,59,40000,"USD","Casa - Grand Bourg","Casa","Venta",-34.4771108,-58.7369371
"202106","GBA","Tigre",3,100,75,80000,"ARS","Departamento - Zerena","Departamento","Alquiler",-34.4234135,-58.6594996
"202106","GBA","Tigre",3,103,75,215000,"USD","Nordelta departamento 3 ambientes con vista al lago en Panorama Sendero","Departamento","Venta",-34.403305,-58.6489989
"202106","CABA","Comuna 5",3,59,51,89000,"USD","3 amb CON COCHERA  en Almagro","Departamento","Venta",-34.6184018,-58.4197497
"202106","CABA","Comuna 5",3,75,65,48000,"ARS","Departamento de 3 amb en venta al frente c/balcon!!!","Departamento","Alquiler",-34.6106791,-58.4244327
"202106","CABA","Comuna 12",3,70,65,188500,"USD","Departamento - Coghlan","Departamento","Venta",-34.563294,-58.4705083
"202106","CABA","Comuna 14",3,70,66,55000,"ARS","Departamento 3 ambientes en alquiler en Palermo","Departamento","Alquiler",-34.5835232,-58.4213465
"202106","CABA","Comuna 14",3,80,68,269000,"USD","U$S 269.000 - 3 amb - Cochera - Palermo - Guatemala 6000 (LeS)","Departamento","Venta",-34.5772506,-58.4360596
"202106","CABA","Comuna 14",3,120,90,699000,"USD","3 AMBIENTES | BERUTI al 3300","Departamento","Venta",-34.5867231,-58.4096229
"202106","CABA","Comuna 14",3,97,65,380000,"USD","Departamento - Palermo","Departamento","Venta",-34.5814476,-58.4389266
"202106","CABA","Comuna 14",3,60,58,40000,"ARS","Departamento - Palermo Hollywood","Departamento","Alquiler",-34.575069,-58.438195
"202106","CABA","Comuna 14",3,56,54,95000,"USD","Departamento - Palermo","Departamento","Venta",-34.5853097,-58.4416517
"202106","CABA","Comuna 14",3,94,89,277000,"USD","3 ambientes Dependencia/ Cochera fija y Baulera - Palermo Chico","Departamento","Venta",-34.5833348984,-58.4045670423
"202106","CABA","Comuna 14",3,120,110,280000,"ARS","LIB 2424 -TORRE CON AMENITIES EN PALERMO CHICO!","Departamento","Alquiler",-34.5797397,-58.4059026
"202106","CABA","Comuna 14",3,110,100,185000,"ARS","Departamento - Palermo","Departamento","Alquiler",-34.5765182,-58.4248386
"202106","CABA","Comuna 14",3,100,93,440000,"USD","Palacio Bonaire Salguero y Liberador 100 m2 3 amb   dep amenities cochera","Departamento","Venta",-34.5787045,-58.4069046
"202106","CABA","Comuna 14",3,70,65,140000,"USD","Departamento - Palermo","Departamento","Venta",-34.5917273,-58.4281927
"202106","GBA","Quilmes",3,70,70,30000,"ARS","ALQUILER DEPTO 3 AMBIENTES C/ COCHERA $30.000 SIN EXPENSAS!","Departamento","Alquiler",-34.721125,-58.2426201
"202106","CABA","Comuna 13",3,66,66,165000,"USD","Impecables y confortables tres ambientes en Belgrano","Departamento","Venta",-34.5690412,-58.4523631
"202106","CABA","Comuna 13",3,77,70,270000,"USD","Departamento - Belgrano","Departamento","Venta",-34.5721913974,-58.4604629503
"202106","CABA","Comuna 13",3,89,89,495000,"USD","3 ambientes con cochera y amenities - torre de categoria - Belgrano Chico","Departamento","Venta",-34.5511941,-58.4426404
"202106","CABA","Comuna 13",3,50,45,150000,"USD","Hermoso departamento de 3 ambientes con patio y balcón en Belgrano","Departamento","Venta",-34.56611,-58.463368
"202106","CABA","Comuna 13",3,113,113,720000,"USD","Dpto. 3 amb c balcón aterrazado, 1 coch, CON RENTA , full amenities - TORRE FORUM - Bajo Belgrano","Departamento","Venta",-34.5523409,-58.4379822
"202106","CABA","Comuna 10",3,122,73,163000,"USD","Departamento - Monte Castro","Departamento","Venta",-34.6226981,-58.5080475
"202106","GBA","La Plata",3,58,58,22500,"ARS","Departamento - La Plata","Departamento","Alquiler",-34.9493046,-57.9551544
"202106","CABA","Comuna 2",3,61,61,150000,"USD","SEMIPISO AV. LAS HERAS AL 2000 - IMPECABLE BAULERA - Recoleta","Departamento","Venta",-34.5900338,-58.3942868
"202106","CABA","Comuna 2",3,80,70,200000,"USD","Departamento 4 ambientes en Recoleta","Departamento","Venta",-34.5953986833,-58.3980123629
"202106","CABA","Comuna 6",3,74,74,37000,"ARS","DEPARTAMENTO 3 AMB C/DEP. FORMOSA 240 CABALLITO","Departamento","Alquiler",-34.621096,-58.4317773
"202106","CABA","Comuna 7",3,68,62,180000,"USD","Venta departamento de 3 ambientes con cochera","Departamento","Venta",-34.6200178,-58.4605576
"202106","CABA","Comuna 1",3,66,54,156000,"USD","Departamento - San Telmo","Departamento","Venta",-34.6209092,-58.3758471
"202106","GBA","San Isidro",3,125,107,450000,"USD","Departamento - San Isidro","Departamento","Venta",-34.472717,-58.504349
"202106","GBA","San Isidro",3,100,90,250000,"USD","Departamento - Pasionaria Martínez","Departamento","Venta",-34.4937364695,-58.5278532529
"202106","GBA","San Isidro",3,70,68,154500,"USD","Departamento - San Isidro","Departamento","Venta",-34.4733069,-58.5197617
"202106","GBA","San Isidro",3,89,81,400000,"USD","Departamento - San Isidro","Departamento","Venta",-34.472717,-58.504349
"202106","GBA","San Miguel",3,60,60,26000,"ARS","Alquiler - DEPARTAMENTO DE TRES AMBIENTES - SAN MIGUEL","Departamento","Alquiler",-34.5304995,-58.7283494
"202106","CABA","Comuna 2",3,60,60,120000,"USD","Beruti 2700, Barrio Norte: Depto. de 3 amb. Contrafrente. Muy Luminoso. Cocina y baño completos.","Departamento","Venta",-34.5916282,-58.4036627
"202106","CABA","Comuna 1",3,105,105,65000,"ARS","Departamento de categoria en 3 amb dependencia c/balcon frances al frente en  Barrio Norte","Departamento","Alquiler",-34.5926569,-58.3811013
"202106","GBA","San Fernando",3,75,64,185000,"USD","Departamento - Punta Chica","Departamento","Venta",-34.447316,-58.5412065
"202106","CABA","Comuna 1",3,126,120,570000,"USD","Departamento - Puerto Madero","Departamento","Venta",-34.6200926,-58.3610901
"202106","CABA","Comuna 3",3,56,52,110000,"USD","Departamento - San Cristobal","Departamento","Venta",-34.6237933,-58.4022563
"202106","CABA","Comuna 15",3,86,74,230000,"USD","Departamento - Villa Ortuzar - Venta 3 ambientes balcón aterrazado con parrilla cochera","Departamento","Venta",-34.5782615937,-58.471462927
"202106","CABA","Comuna 15",3,103,68,240000,"USD","Achalay!  EDIFICIO DE CASAS!  CON COCHERA!!! BALCON TERRAZA CON PARRILLA PROPIA.","Departamento","Venta",-34.5776433,-58.4722717
"202106","CABA","Comuna 12",3,87,77,308195,"USD","Departamento 3 ambientes en Av. Olazabal al 4800","Departamento","Venta",-34.5752248,-58.4842584
"202106","CABA","Comuna 15",3,103,68,240000,"USD","ACHALAY!  EDIFICIO DE CASAS! CON COCHERA!  BALCON TERRAZA CON PARRILLA PROPIA.","Departamento","Venta",-34.5776433,-58.4722717
"202106","GBA","Vicente López",3,65,56,65000,"ARS","Departamento 3 ambientes con cochera y baulera en Av Maipu Florida -  Vicente López","Departamento","Alquiler",-34.5206404,-58.4859723
"202106","GBA","Lomas de Zamora",3,95,95,300000,"USD","Departamento - Lomas de Zamora Oeste","Departamento","Venta",-34.7649142,-58.4027842
"202106","CABA","Comuna 12",3,63,61,165000,"USD","Departamento - Villa Pueyrredon","Departamento","Venta",-34.5869241,-58.5051709
"202106","CABA","Comuna 13",3,110,92,240000,"USD","PH 3 amb Refaccionado a nuevo, VENTA CON MUEBLES!","PH","Venta",-34.5731220744,-58.4548616409
"202106","CABA","Comuna 5",3,68,60,40000,"ARS","Departamento de 3 ambientes en Alquiler en Almagro","Departamento","Alquiler",-34.6044513625,-58.4275324363
"202106","CABA","Comuna 6",3,75,75,90000,"USD","VENTA 3 AMBIENTES , BALCON TERRAZA","Departamento","Venta",-34.622641878,-58.4420853854
"202106","GBA","General San Martín",3,50,50,27000,"ARS","PH 3 Amb con patio cubierto","PH","Alquiler",-34.5739421,-58.5319862
"202106","GBA","San Miguel",3,48,48,67000,"USD","PH-VENTA-SAN MIGUEL-3 AMBIENTES-APTO CREDITO","PH","Venta",-34.552978,-58.714156
"202106","GBA","La Matanza",3,211,140,85000,"USD","CASA DE 4 AMBIENTES EN VENTA EN ISIDRO CASANOVA","Casa","Venta",-34.6860869962,-58.586268425
"202106","GBA","Malvinas Argentinas",3,85,80,98000,"USD","CASA EN VENTA 3 AMB EN TORTUGUITAS MALV ARGENTINAS","Casa","Venta",-34.4692386,-58.7547151
